     2.11           OBSERVATION DATA    G (GPS)             RINEX VERSION / TYPE
teqc  2010Mar17     Mike Craymer        20150102 02:01:01UTCPGM / RUN BY / DATE
Linux 2.4.20-8|Pentium IV|gcc -static|Linux|486/DX+         COMMENT
teqc  2010Oct21     Mike Craymer        20150102 01:10:25UTCCOMMENT
MSXP|IAx86-PII|bcc32 5.0|MSWin95->XP|486/DX+                COMMENT
BIT 2 OF LLI FLAGS DATA COLLECTED UNDER A/S CONDITION       COMMENT
ALRT                                                        MARKER NAME
40162M001                                                   MARKER NUMBER
MRC                 NRCan/GSD                               OBSERVER / AGENCY
1006                ASHTECH UZ-12       CQ00                REC # / TYPE / VERS
903                 ASH701945D_M    NONE                    ANT # / TYPE
   388042.7540  -740382.3996  6302001.8510                  APPROX POSITION XYZ
        0.1000        0.0000        0.0000                  ANTENNA: DELTA H/E/N
     1     1                                                WAVELENGTH FACT L1/2
     7    L1    L2    C1    P2    P1    S1    S2            # / TYPES OF OBSERV
    30.0000                                                 INTERVAL
     0                                                      LEAP SECONDS
 SNR is mapped to RINEX snr flag value [0-9]                COMMENT
  L1 & L2: min(max(int(snr_dBHz/6), 0), 9)                  COMMENT
pseudorange smoothing corrections applied                   COMMENT
  2015     1     1     0     0    0.0000000     GPS         TIME OF FIRST OBS
                                                            END OF HEADER
 15  1  1  0  0  0.0000000  0 11G14G31G06G29G20G25G23G32G03G02G12
  -4075631.30047  -3170287.62346  23763577.1624   23763576.2884   23763576.8424
        44.0004         39.0004
 -11206159.62349  -8727352.43048  21205999.0064   21205997.7564   21205999.2984
        56.0004         50.0004
  -9853001.01448  -7670082.92247  22331001.3014   22331005.2104   22331001.9094
        51.0004         46.0004
  -1948541.67347  -1339106.52246  24571549.8034   24571549.3664   24571550.4354
        42.0004         39.0004
 -18046736.73248 -14031121.69647  21897610.2694   21897609.2464   21897609.6504
        52.0004         46.0004
 -20337020.17749 -15793001.14848  21297379.6434   21297381.8084   21297379.5094
        54.0004         49.0004
  -7831620.70947  -6096989.25746  24215369.2724   24215366.3534   24215369.0414
        46.0004         39.0004
  -7762907.06748  -6045836.06347  23633196.5694   23633196.8824   23633195.9864
        48.0004         42.0004
 -17788297.44348 -13852392.06347  21925937.7754   21925939.7124   21925938.2954
        52.0004         47.0004
  -9139533.76147  -7096399.84746  24069303.2004   24069301.6584   24069302.6764
        47.0004         40.0004
  -9822352.11148  -7650037.38247  22494103.9154   22494103.9634   22494104.1084
        51.0004         45.0004
 15  1  1  0  0 30.0000000  0 11G14G31G06G29G20G25G23G32G03G02G12
  -3971735.15347  -3089329.60446  23783347.9314   23783347.0974   23783347.6314
        45.0004         39.0004
 -11233972.60849  -8749024.88948  21200706.3824   21200705.1114   21200706.6754
        56.0004         50.0004
  -9873945.22748  -7686403.16647  22327015.8204   22327019.7314   22327016.4124
        50.0004         46.0004
  -2060733.06847  -1426528.24146  24550200.3404   24550199.9094   24550200.9624
        42.0004         38.0004
 -18054227.12348 -14036958.35947  21896184.8924   21896183.8714   21896184.2604
        52.0004         46.0004
 -20331775.32549 -15788914.23048  21298377.6944   21298379.8594   21298377.5544
        54.0004         49.0004
  -7935455.68247  -6177899.55346  24195610.0634   24195607.1444   24195609.8394
        45.0004         39.0004
  -7666922.71248  -5971043.05647  23651461.7844   23651462.1014   23651461.2054
        48.0004         42.0004
 -17755831.59848 -13827094.01047  21932115.8334   21932117.7514   21932116.3384
        53.0004         47.0004
  -9225518.44747  -7163400.90846  24052940.8664   24052939.3194   24052940.3374
        47.0004         40.0004
  -9739702.49648  -7585634.97247  22509831.5344   22509831.5564   22509831.7284
        51.0004         45.0004
 15  1  1  0  1  0.0000000  0 11G14G31G06G29G20G25G23G32G03G02G12
  -3867601.22047  -3008186.27746  23803163.9714   23803163.1244   23803163.6564
        44.0004         39.0004
 -11261200.56749  -8770241.47348  21195525.0754   21195523.7954   21195525.3604
        56.0004         50.0004
  -9894257.46448  -7702230.96847  22323150.5824   22323154.5264   22323151.1874
        51.0004         46.0004
  -2172752.47847  -1513816.02346  24528883.7144   24528883.2314   24528884.3264
        42.0004         38.0004
 -18061074.53748 -14042293.98847  21894881.8714   21894880.8274   21894881.2284
        52.0004         46.0004
 -20325876.86649 -15784318.03148  21299500.1414   21299502.3024   21299499.9924
        54.0004         49.0004
  -8039070.71947  -6258638.48446  24175892.7324   24175889.8044   24175892.5124
        46.0004         39.0004
  -7570631.30647  -5896010.79547  23669785.4214   23669785.7464   23669784.8494
        47.0004         42.0004
 -17722756.97348 -13801321.58547  21938409.7214   21938411.6584   21938410.2444
        52.0004         47.0004
  -9311190.20148  -7230157.90546  24036637.9204   24036636.3244   24036637.3854
        48.0004         41.0004
  -9656603.59748  -7520882.53747  22525644.6994   22525644.7154   22525644.8904
        51.0004         45.0004
 15  1  1  0  1 30.0000000  0 11G14G31G06G29G20G25G23G32G03G02G12
  -3763225.91647  -2926854.88546  23823025.9554   23823025.0984   23823025.6294
        43.0004         39.0004
 -11287836.96749  -8790997.11348  21190456.3254   21190455.0644   21190456.6284
        56.0004         50.0004
  -9913930.89348  -7717560.89947  22319406.8544   22319410.7794   22319407.4534
        51.0004         46.0004
  -2284590.58747  -1600962.49746  24507601.5554   24507601.0394   24507602.1434
        43.0004         38.0004
 -18067273.02148 -14047123.96847  21893702.3344   21893701.3044   21893701.6934
        52.0004         46.0004
 -20319319.15949 -15779208.11748  21300748.0114   21300750.1704   21300747.8734
        54.0004         49.0004
  -8142457.43947  -6339199.51246  24156218.8444   24156215.9144   24156218.6144
        46.0004         39.0004
  -7474029.47547  -5820736.66847  23688168.1734   23688168.4904   23688167.5834
        47.0004         42.0004
 -17689068.85748 -13775071.11547  21944820.3614   21944822.3184   21944820.8874
        52.0004         47.0004
  -9396541.63047  -7296665.56646  24020396.1254   24020394.5374   24020395.5954
        47.0004         41.0004
  -9573052.71448  -7455778.12547  22541544.0224   22541544.0794   22541544.2194
        51.0004         45.0004
 15  1  1  0  2  0.0000000  0 11G14G31G06G29G20G25G23G32G03G02G12
  -3658608.32347  -2845334.67046  23842933.9944   23842933.1584   23842933.6894
        45.0004         39.0004
 -11313877.74649  -8811288.63548  21185500.9444   21185499.6734   21185501.2224
        56.0004         50.0004
  -9932961.65348  -7732390.01947  22315785.3894   22315789.3114   22315785.9924
        51.0004         46.0004
  -2396241.80446  -1687963.49246  24486355.0764   24486354.5754   24486355.6184
        41.0004         37.0004
 -18072819.07848 -14051445.56847  21892646.9434   21892645.9144   21892646.3084
        52.0004         46.0004
 -20312099.36149 -15773582.31948  21302121.9104   21302124.0844   21302121.7824
        54.0004         49.0004
  -8245610.46847  -6419578.43446  24136589.4314   24136586.4904   24136589.2044
        46.0004         40.0004
  -7377116.65347  -5745220.21047  23706610.0854   23706610.4244   23706609.4974
        46.0004         42.0004
 -17654765.17248 -13748340.98647  21951348.1594   21951350.1044   21951348.6734
        52.0004         47.0004
  -9481566.65047  -7362918.83946  24004216.4114   24004214.8094   24004215.8704
        47.0004         41.0004
  -9489047.94648  -7390319.80047  22557529.5594   22557529.5944   22557529.7544
        51.0004         45.0004
 15  1  1  0  2 30.0000000  0 11G14G31G06G29G20G25G23G32G03G02G12
  -3553755.30847  -2763631.02546  23862886.8684   23862886.0244   23862886.5524
        45.0004         39.0004
 -11339326.36749  -8831118.73048  21180658.2324   21180656.9544   21180658.5274
        56.0004         50.0004
  -9951353.50248  -7746721.29647  22312285.5174   22312289.4254   22312286.1174
        51.0004         46.0004
  -2507707.24147  -1774819.51546  24465143.7374   24465143.2444   24465144.3204
        44.0004         38.0004
 -18077716.80248 -14055261.97247  21891714.9474   21891713.9054   21891714.3054
        52.0004         46.0004
 -20304222.13349 -15767444.21348  21303620.8834   21303623.0594   21303620.7484
        54.0004         49.0004
  -8348532.03348  -6499777.02946  24117004.0934   24117001.1424   24117003.8484
        48.0004         40.0004
  -7279899.83947  -5669466.89246  23725109.8544   23725110.2034   23725109.2754
        47.0004         41.0004
 -17619851.54448 -13721135.57647  21957992.0064   21957993.9634   21957992.5224
        52.0004         47.0004
  -9566267.09347  -7428919.19746  23988098.4564   23988096.8814   23988097.9274
        46.0004         41.0004
  -9404597.05048  -7324513.90847  22573600.0264   22573600.0614   22573600.2274
        51.0004         45.0004
 15  1  1  0  3  0.0000000  0 11G14G31G06G29G20G25G23G32G03G02G12
  -3448668.94347  -2681745.55846  23882884.1454   23882883.3074   23882883.8224
        44.0004         39.0004
 -11364181.96149  -8850486.72548  21175928.3584   21175927.1004   21175928.6524
        56.0004         50.0004
  -9969105.31048  -7760553.82347  22308907.4114   22308911.3214   22308908.0094
        51.0004         46.0004
  -2618983.98647  -1861528.49946  24443968.3514   24443967.8154   24443968.8984
        42.0004         37.0004
 -18081965.63548 -14058572.75047  21890906.4164   21890905.3814   21890905.7684
        52.0004         46.0004
 -20295687.53449 -15760793.88148  21305244.9654   21305247.1494   21305244.8494
        54.0004         49.0004
  -8451218.74148  -6579792.58246  24097463.4204   24097460.4394   24097463.1914
        48.0004         41.0004
  -7182381.32047  -5593478.45846  23743667.0274   23743667.3924   23743666.4504
        47.0004         41.0004
 -17584328.80748 -13693455.54247  21964751.7874   21964753.7254   21964752.2944
        52.0004         47.0004
  -9650640.32147  -7494664.51246  23972042.7154   23972041.1234   23972042.2004
        46.0004         41.0004
  -9319701.95048  -7258362.01947  22589755.1374   22589755.1974   22589755.3164
        51.0004         45.0004
 15  1  1  0  3 30.0000000  0 11G14G31G06G29G20G25G23G32G03G02G12
  -3343349.94947  -2599678.81346  23902925.6824   23902924.8484   23902925.3754
        43.0004         38.0004
 -11388441.97849  -8869390.63548  21171311.8384   21171310.5734   21171312.1344
        56.0004         50.0004
  -9986214.71448  -7773885.69647  22305651.4934   22305655.3784   22305652.1014
        51.0004         46.0004
  -2730068.23147  -1948087.60046  24422829.6714   24422829.1404   24422830.2304
        43.0004         38.0004
 -18085563.95948 -14061376.64347  21890221.6744   21890220.6484   21890221.0444
        52.0004         46.0004
 -20286494.45449 -15753630.47448  21306994.3844   21306996.5724   21306994.2554
        54.0004         48.0004
  -8553666.73848  -6659622.15346  24077968.1794   24077965.2124   24077967.9434
        48.0004         41.0004
  -7084561.98547  -5517255.64446  23762281.4544   23762281.8344   23762280.8764
        47.0004         41.0004
 -17548196.60848 -13665300.60547  21971627.5284   21971629.4874   21971628.0444
        52.0004         47.0004
  -9734682.73547  -7560152.26846  23956050.0944   23956048.5654   23956049.5724
        47.0004         41.0004
  -9234363.75148  -7191864.85247  22605994.5554   22605994.6524   22605994.7444
        51.0004         45.0004
 15  1  1  0  4  0.0000000  0 11G14G31G06G29G20G25G23G32G03G02G12
  -3237803.44847  -2517434.79646  23923010.5274   23923009.6804   23923010.2204
        44.0004         38.0004
 -11412108.97349  -8887832.44848  21166808.1684   21166806.8854   21166808.4374
        56.0004         50.0004
 -10002684.02848  -7786718.82047  22302517.4064   22302521.2604   22302518.0244
        51.0004         46.0004
  -2840959.97647  -2034496.84746  24401727.7504   24401727.2254   24401728.3224
        43.0004         38.0004
 -18088514.36348 -14063675.65247  21889660.2344   21889659.1844   21889659.5984
        52.0004         46.0004
 -20276645.99649 -15745956.37248  21308868.4914   21308870.6844   21308868.3584
        54.0004         48.0004
  -8655876.75448  -6739266.30246  24058518.2504   24058515.2754   24058518.0104
        48.0004         41.0004
  -6986447.26147  -5440802.67146  23780952.1164   23780952.5054   23780951.5254
        47.0004         41.0004
 -17511458.99148 -13636673.91547  21978618.4784   21978620.4494   21978619.0024
        52.0004         47.0004
  -9818394.18947  -7625381.91847  23940120.3044   23940118.7504   23940119.7734
        47.0004         42.0004
  -9148587.88748  -7125026.57047  22622317.1884   22622317.2984   22622317.3854
        51.0004         45.0004
 15  1  1  0  4 30.0000000  0 11G14G31G06G29G20G25G23G32G03G02G12
  -3132027.67047  -2435012.12346  23943138.9884   23943138.1614   23943138.6814
        43.0004         38.0004
 -11435177.79749  -8905808.15748  21162418.3084   21162417.0474   21162418.5884
        56.0004         50.0004
 -10018508.71248  -7799049.71047  22299506.0344   22299509.8954   22299506.6554
        51.0004         46.0004
  -2951651.86747  -2120750.32446  24380663.8274   24380663.3254   24380664.3714
        42.0004         38.0004
 -18090812.53448 -14065466.43447  21889222.8924   21889221.8764   21889222.2694
        52.0004         46.0004
 -20266138.51849 -15737768.71248  21310867.9994   21310870.1844   21310867.8514
        54.0004         48.0004
  -8757842.17448  -6818719.85546  24039114.8564   24039111.8694   24039114.6184
        48.0004         41.0004
  -6888035.80147  -5364118.46446  23799679.2304   23799679.6224   23799678.6564
        47.0004         41.0004
 -17474113.19148 -13607573.31147  21985725.1724   21985727.1394   21985725.6814
        52.0004         47.0004
  -9901768.18547  -7690348.68746  23924254.7754   23924253.2214   23924254.2364
        47.0004         41.0004
  -9062372.36048  -7057845.67647  22638723.4864   22638723.6154   22638723.6924
        51.0004         45.0004
 15  1  1  0  5  0.0000000  0 11G14G31G06G29G20G25G23G32G03G02G12
  -3026028.14647  -2352415.09546  23963310.0374   23963309.1944   23963309.7244
        44.0004         38.0004
 -11457650.97449  -8923319.72548  21158141.8114   21158140.5464   21158142.1044
        56.0004         50.0004
 -10033690.87148  -7810879.84347  22296616.8714   22296620.7004   22296617.4934
        51.0004         46.0004
  -3062144.01047  -2206848.01646  24359637.8184   24359637.2964   24359638.3324
        47.0004         38.0004
 -18092461.69548 -14066751.50547  21888909.0864   21888908.0524   21888908.4514
        52.0004         46.0004
 -20254975.71049 -15729070.47948  21312992.2434   21312994.4544   21312992.1224
        54.0004         48.0004
  -8859563.59648  -6897983.27746  24019757.9024   24019754.9014   24019757.6684
        48.0004         41.0004
  -6789332.96747  -5287207.12347  23818461.7264   23818462.1244   23818461.1544
        47.0004         42.0004
 -17436163.52548 -13578002.18047  21992946.7764   21992948.7544   21992947.2884
        52.0004         47.0004
  -9984805.59847  -7755053.01846  23908453.1634   23908451.5874   23908452.6474
        47.0004         41.0004
  -8975723.65148  -6990327.29947  22655212.2614   22655212.4124   22655212.4504
        51.0004         45.0004
 15  1  1  0  5 30.0000000  0 11G14G31G06G29G20G25G23G32G03G02G12
  -2919810.13947  -2269647.83446  23983522.6784   23983521.8294   23983522.3554
        44.0004         38.0004
 -11479530.57649  -8940368.75948  21153978.2514   21153976.9934   21153978.5464
        56.0004         50.0004
 -10048233.06248  -7822211.40247  22293849.5854   22293853.3864   22293850.1844
        51.0004         46.0004
  -3172436.82047  -2292790.57346  24338649.8694   24338649.3574   24338650.3834
        44.0004         39.0004
 -18093464.60748 -14067532.99347  21888718.2304   21888717.2054   21888717.5914
        52.0004         46.0004
 -20243160.66649 -15719863.95348  21315240.5704   21315242.7704   21315240.4434
        54.0004         48.0004
  -8961041.36048  -6977056.86046  24000447.3094   24000444.3244   24000447.0854
        48.0004         41.0004
  -6690344.49947  -5210073.27946  23837298.6204   23837299.0284   23837298.0564
        47.0004         41.0004
 -17397614.11848 -13547963.70147  22000282.5014   22000284.4854   22000283.0124
        52.0004         47.0004
 -10067507.16247  -7819495.79446  23892715.5794   23892713.9904   23892715.0544
        47.0004         41.0004
  -8888646.78448  -6922475.26547  22671782.4974   22671782.6544   22671782.6954
        51.0004         44.0004
 15  1  1  0  6  0.0000000  0 11G14G31G06G29G20G25G23G32G03G02G12
  -2813370.01147  -2186707.48446  24003777.5724   24003776.7144   24003777.2464
        43.0004         38.0004
 -11500809.86849  -8956950.02448  21149928.9354   21149927.6744   21149929.2344
        56.0004         50.0004
 -10062128.20148  -7833038.60647  22291205.2794   22291209.0584   22291205.8974
        51.0004         46.0004
  -3282520.80847  -2378570.14146  24317701.4634   24317700.9394   24317701.9864
        44.0004         39.0004
 -18093815.09348 -14067806.10247  21888651.5394   21888650.5134   21888650.9144
        52.0004         46.0004
 -20230688.10249 -15710145.12648  21317614.0724   21317616.2804   21317613.9314
        54.0004         48.0004
  -9062266.96448  -7055933.92446  23981184.6914   23981181.7184   23981184.4694
        48.0004         41.0004
  -6591066.88847  -5132714.12046  23856190.5354   23856190.9314   23856189.9584
        46.0004         41.0004
 -17358460.35548 -13517454.32147  22007733.2544   22007735.2484   22007733.7564
        52.0004         47.0004
 -10149864.01247  -7883669.79946  23877043.4574   23877041.8344   23877042.9394
        47.0004         41.0004
  -8801138.49348  -6854286.90747  22688434.7154   22688434.8594   22688434.8984
        51.0004         45.0004
 15  1  1  0  6 30.0000000  0 11G14G31G06G29G20G25G23G32G03G02G12
  -2706709.32047  -2103595.25646  24024074.4194   24024073.5664   24024074.0884
        45.0004         38.0004
 -11521487.63949  -8973062.57648  21145994.0924   21145992.8114   21145994.3854
        56.0004         50.0004
 -10075375.72848  -7843361.30747  22288684.3174   22288688.0884   22288684.9294
        51.0004         46.0004
  -3392393.63248  -2464185.29046  24296793.3114   24296792.7844   24296793.8414
        48.0004         39.0004
 -18093512.65548 -14067570.43647  21888709.0934   21888708.0734   21888708.4614
        52.0004         46.0004
 -20217557.73349 -15699913.72948  21320112.7314   21320114.9724   21320112.6154
        54.0004         48.0004
  -9163237.45148  -7134612.22246  23961970.6474   23961967.6654   23961970.4124
        48.0004         41.0004
  -6491502.05247  -5055131.15146  23875137.1084   23875137.5104   23875136.5364
        47.0004         41.0004
 -17318702.80248 -13486474.43147  22015298.8794   22015300.8874   22015299.3924
        52.0004         47.0004
 -10231873.44047  -7947573.08147  23861437.4584   23861435.8004   23861436.9344
        47.0004         42.0004
  -8713200.75248  -6785763.94147  22705168.6714   22705168.7964   22705168.8754
        51.0004         45.0004
 15  1  1  0  7  0.0000000  0 11G14G31G06G29G20G25G23G32G03G02G12
  -2599836.82247  -2020317.98146  24044411.5924   24044410.7134   24044411.2564
        44.0004         38.0004
 -11541570.14549  -8988711.28348  21142172.5084   21142171.2584   21142172.8054
        56.0004         50.0004
 -10087981.65248  -7853184.11347  22286285.4914   22286289.2744   22286286.1204
        51.0004         46.0004
  -3502059.00747  -2549638.97246  24275924.8074   24275924.3004   24275925.3314
        45.0004         39.0004
 -18092563.83848 -14066831.09247  21888889.6434   21888888.6154   21888889.0074
        52.0004         46.0004
 -20203776.78949 -15689175.35048  21322735.1694   21322737.4044   21322735.0344
        54.0004         48.0004
  -9263957.07948  -7213095.04046  23942804.3224   23942801.3584   23942804.1024
        48.0004         41.0004
  -6391659.29447  -4977331.60646  23894136.5614   23894136.9754   23894135.9864
        47.0004         41.0004
 -17278349.51948 -13455030.31247  22022977.8404   22022979.8604   22022978.3484
        52.0004         47.0004
 -10313539.78147  -8011209.16146  23845896.8414   23845895.1874   23845896.3284
        47.0004         41.0004
  -8624842.95248  -6716913.63747  22721982.5504   22721982.6554   22721982.7474
        51.0004         45.0004
 15  1  1  0  7 30.0000000  0 11G14G31G06G29G20G25G23G32G03G02G12
  -2492750.69847  -1936874.25146  24064789.4054   24064788.5224   24064789.0894
        45.0004         38.0004
 -11561052.15449  -9003892.07648  21138465.2134   21138463.9464   21138465.5094
        56.0004         50.0004
 -10099940.83848  -7862503.03447  22284009.8104   22284013.5934   22284010.4164
        51.0004         46.0004
  -3611508.90347  -2634924.59046  24255097.1904   24255096.6614   24255097.6814
        45.0004         40.0004
 -18090963.83348 -14065584.33447  21889194.1024   21889193.0814   21889193.4744
        52.0004         46.0004
 -20189341.13849 -15677926.77748  21325482.1844   21325484.4154   21325482.0524
        54.0004         49.0004
  -9364418.47347  -7291376.62746  23923687.1394   23923684.1704   23923686.9244
        47.0004         41.0004
  -6291536.56547  -4899313.91346  23913189.2874   23913189.7034   23913188.7194
        47.0004         41.0004
 -17237397.33348 -13423119.52447  22030770.7904   22030772.7954   22030771.3054
        52.0004         47.0004
 -10394856.03547  -8074572.52146  23830422.9244   23830421.2694   23830422.3884
        47.0004         41.0004
  -8536062.75948  -6647734.16647  22738876.7774   22738876.8734   22738876.9774
        50.0004         45.0004
 15  1  1  0  8  0.0000000  0 11G14G31G06G29G20G25G23G32G03G02G12
  -2385454.87547  -1853267.12746  24085207.1484   24085206.2634   24085206.8164
        45.0004         38.0004
 -11579934.40849  -9018605.51948  21134872.0474   21134870.7764   21134872.3244
        56.0004         50.0004
 -10111254.02948  -7871318.54047  22281857.0044   22281860.7884   22281857.6144
        51.0004         46.0004
  -3720742.15147  -2720041.39946  24234310.7814   24234310.2694   24234311.2614
        46.0004         40.0004
 -18088714.30548 -14063831.45047  21889622.1774   21889621.1474   21889621.5474
        52.0004         46.0004
 -20174252.96449 -15666169.76148  21328353.3654   21328355.5904   21328353.2304
        54.0004         49.0004
  -9464620.91247  -7369456.42246  23904619.2184   23904616.2374   23904618.9934
        47.0004         41.0004
  -6191137.88147  -4821081.19546  23932294.5404   23932294.9684   23932293.9694
        47.0004         41.0004
 -17195849.06148 -13390744.25847  22038677.1634   22038679.1904   22038677.6804
        52.0004         47.0004
 -10475821.03547  -8137662.11546  23815015.7714   23815014.1034   23815015.2354
        47.0004         41.0004
  -8446864.89948  -6578229.39247  22755850.6154   22755850.7114   22755850.8184
        50.0004         45.0004
 15  1  1  0  8 30.0000000  0 11G14G31G06G29G20G25G23G32G03G02G12
  -2277952.47047  -1769499.04346  24105664.2024   24105663.3094   24105663.8664
        45.0004         38.0004
 -11598217.62549  -9032852.18248  21131392.8564   21131391.6024   21131393.1444
        56.0004         50.0004
 -10121922.01648  -7879631.21947  22279826.9354   22279830.7074   22279827.5344
        51.0004         46.0004
  -3829757.27247  -2804988.27446  24213565.9304   24213565.3964   24213566.3854
        45.0004         40.0004
 -18085816.61848 -14061573.50747  21890173.5834   21890172.5634   21890172.9474
        52.0004         46.0004
 -20158514.07249 -15653905.66548  21331348.3554   21331350.5844   21331348.2184
        54.0004         49.0004
  -9564563.42447  -7447333.68246  23885600.7604   23885597.8024   23885600.5414
        47.0004         41.0004
  -6090467.16247  -4742636.51946  23951451.5704   23951452.0094   23951451.0074
        47.0004         41.0004
 -17153707.40448 -13357906.60747  22046696.4564   22046698.4824   22046696.9784
        52.0004         47.0004
 -10556434.14647  -8200477.61746  23799675.6544   23799674.0274   23799675.1344
        46.0004         41.0004
  -8357253.04048  -6508402.08847  22772903.2644   22772903.3854   22772903.4774
        50.0004         44.0004
 15  1  1  0  9  0.0000000  0 11G14G31G06G29G20G25G23G32G03G02G12
  -2170242.78847  -1685569.44446  24126160.6934   24126159.8004   24126160.3674
        45.0004         38.0004
 -11615898.16349  -9046629.22348  21128028.3784   21128027.1074   21128028.6654
        56.0004         50.0004
 -10131941.33748  -7887438.50547  22277920.3234   22277924.1154   22277920.9394
        51.0004         46.0004
  -3938548.45547  -2889760.71046  24192863.7124   24192863.2124   24192864.1684
        44.0004         40.0004
 -18082267.71548 -14058808.12547  21890848.9084   21890847.8954   21890848.2894
        52.0004         46.0004
 -20142121.93749 -15641132.58848  21334467.6814   21334469.9224   21334467.5604
        54.0004         48.0004
  -9664240.21448  -7525003.87946  23866632.8814   23866629.9054   23866632.6714
        48.0004         41.0004
  -5989523.63747  -4663979.23146  23970660.4974   23970660.9364   23970659.9114
        47.0004         41.0004
 -17110970.49248 -13324605.11247  22054829.0244   22054831.0434   22054829.5484
        52.0004         47.0004
 -10636689.36047  -8263014.24047  23784403.6594   23784402.0774   23784403.1424
        47.0004         42.0004
  -8267226.01848  -6438251.20747  22790034.8674   22790035.0104   22790035.0854
        50.0004         44.0004
 15  1  1  0  9 30.0000000  0 12G14G31G06G29G20G25G23G32G03G02G12G10
  -2062330.51947  -1601481.99646  24146695.7414   24146694.8574   24146695.4034
        43.0004         38.0004
 -11632977.58649  -9059937.86348  21124778.2624   21124776.9974   21124778.5484
        56.0004         50.0004
 -10141313.63748  -7894741.56747  22276136.8254   22276140.5984   22276137.4214
        51.0004         46.0004
  -4047114.68047  -2974357.77446  24172204.2544   24172203.7744   24172204.6994
        42.0004         40.0004
 -18078069.80948 -14055537.02947  21891647.7504   21891646.7184   21891647.1164
        52.0004         46.0004
 -20125079.42049 -15627852.72548  21337710.7804   21337713.0274   21337710.6574
        54.0004         48.0004
  -9763650.68848  -7602466.57346  23847715.6914   23847712.7144   23847715.4774
        48.0004         41.0004
  -5888312.19947  -4585113.17046  23989920.3764   23989920.8284   23989919.8044
        47.0004         41.0004
 -17067642.13048 -13290842.77847  22063074.1454   22063076.1894   22063074.6784
        52.0004         47.0004
 -10716586.44547  -8325271.71147  23769199.7684   23769198.1714   23769199.2424
        47.0004         42.0004
  -8176789.22448  -6367780.96947  22807244.4224   22807244.5604   22807244.6204
        51.0004         45.0004
                                  25194063.180
        43.000
 15  1  1  0 10  0.0000000  0 12G14G31G06G29G20G25G23G32G03G02G12G10
  -1954216.63347  -1517237.44146  24167269.1534   24167268.2804   24167268.8204
        42.0004         38.0004
 -11649453.91849  -9072776.56548  21121642.9124   21121641.6634   21121643.2044
        56.0004         50.0004
 -10150037.10848  -7901539.00247  22274476.7414   22274480.5134   22274477.3534
        51.0004         46.0004
  -4155451.73847  -3058776.24446  24151588.3864   24151587.8814   24151588.8214
        43.0004         40.0004
 -18073221.42348 -14051759.06647  21892570.3694   21892569.3464   21892569.7424
        52.0004         46.0004
 -20107385.65349 -15614065.34248  21341077.7774   21341080.0114   21341077.6484
        54.0004         48.0004
  -9862791.50148  -7679719.14246  23828849.8174   23828846.8204   23828849.5944
        48.0004         41.0004
  -5786834.00247  -4506039.26146  24009231.0454   24009231.4954   24009230.4694
        46.0004         40.0004
 -17023722.30948 -13256619.55247  22071431.8304   22071433.8564   22071432.3494
        52.0004         47.0004
 -10796121.75548  -8387247.26847  23754064.6974   23754063.0894   23754064.1684
        48.0004         42.0004
  -8085943.79248  -6296992.58847  22824531.9274   22824532.1224   22824532.1264
        50.0004         45.0004
  -1453548.11257  -1095703.37256  25171700.1774   25171699.6564   25171698.4714
        43.0004         37.0004
 15  1  1  0 10 30.0000000  0 12G14G31G06G29G20G25G23G32G03G02G12G10
  -1845906.63746  -1432840.07846  24187879.9004   24187879.0294   24187879.5574
        41.0004         38.0004
 -11665329.96849  -9085147.51248  21118621.8024   21118620.5404   21118622.1044
        56.0004         50.0004
 -10158114.66948  -7907833.10347  22272939.5564   22272943.2874   22272940.1664
        50.0004         46.0004
  -4263560.16147  -3143016.57046  24131016.0224   24131015.5504   24131016.4544
        46.0004         40.0004
 -18067726.07348 -14047476.96747  21893616.1004   21893615.0624   21893615.4664
        52.0004         46.0004
 -20089044.88249 -15599773.88848  21344567.9514   21344570.1844   21344567.8254
        54.0004         48.0004
  -9961663.10848  -7756761.94546  23810035.1654   23810032.1724   23810034.9484
        48.0004         41.0004
  -5685094.76147  -4426761.81346  24028591.3004   24028591.7124   24028590.7134
        46.0004         40.0004
 -16979215.77848 -13221939.17347  22079901.1724   22079903.2024   22079901.6904
        52.0004         47.0004
 -10875296.46248  -8448941.83947  23738998.2354   23738996.6524   23738997.7134
        48.0004         42.0004
  -7994695.68848  -6225890.27847  22841895.9444   22841896.1734   22841896.1434
        50.0004         44.0004
  -1570889.74447  -1187138.22346  25149370.4274   25149370.1564   25149369.0544
        43.0004         37.0004
 15  1  1  0 11  0.0000000  0 12G14G31G06G29G20G25G23G32G03G02G12G10
  -1737397.94147  -1348287.87446  24208528.4194   24208527.5894   24208528.0834
        43.0004         38.0004
 -11680600.62149  -9097046.72048  21115715.8874   21115714.6234   21115716.1784
        56.0004         50.0004
 -10165541.24848  -7913619.89847  22271526.2214   22271529.9204   22271526.8194
        51.0004         46.0004
  -4371432.42547  -3227072.82946  24110488.5704   24110488.0854   24110488.9914
        46.0004         40.0004
 -18061579.41548 -14042687.37047  21894785.7694   21894784.7434   21894785.1464
        52.0004         46.0004
 -20070052.69849 -15584974.72848  21348182.0004   21348184.2244   21348181.8594
        54.0004         48.0004
 -10060258.52848  -7833589.52746  23791273.0734   23791270.0724   23791272.8564
        49.0004         41.0004
  -5583092.69147  -4347279.69746  24048001.6474   24048002.0814   24048001.0834
        45.0004         40.0004
 -16934119.31448 -13186799.11447  22088482.7694   22088484.8124   22088483.2834
        52.0004         47.0004
 -10954102.99748  -8510349.46747  23724001.8204   23724000.2024   23724001.2844
        48.0004         42.0004
  -7903042.69948  -6154472.36047  22859336.9294   22859337.1654   22859337.1224
        49.0004         44.0004
  -1688051.94647  -1278433.53446  25127074.4024   25127075.0234   25127073.7034
        43.0004         38.0004
 15  1  1  0 11 30.0000000  0 12G14G31G06G29G20G25G23G32G03G02G12G10
  -1628698.37147  -1263586.93146  24229213.2964   24229212.4514   24229212.9444
        43.0004         38.0004
 -11695270.87649  -9108478.08648  21112924.2284   21112922.9664   21112924.5334
        56.0004         50.0004
 -10172322.31148  -7918903.87647  22270235.8414   22270239.5514   22270236.4604
        51.0004         46.0004
  -4479071.28047  -3310947.19446  24090005.5214   24090005.0144   24090005.9364
        45.0004         40.0004
 -18054786.75848 -14037394.38647  21896078.3684   21896077.3444   21896077.7444
        52.0004         46.0004
 -20050415.60649 -15569673.13848  21351918.8424   21351921.0734   21351918.7134
        54.0004         48.0004
 -10158580.51948  -7910204.07846  23772563.0194   23772560.0264   23772562.8154
        49.0004         41.0004
  -5480835.57747  -4267598.86046  24067460.5384   24067460.9794   24067459.9834
        46.0004         40.0004
 -16888439.82948 -13151204.75447  22097175.3294   22097177.3844   22097175.8444
        52.0004         47.0004
 -11032544.73447  -8571472.90347  23709074.8594   23709073.2404   23709074.3204
        47.0004         42.0004
  -7810993.13748  -6082745.53047  22876853.4484   22876853.7114   22876853.6434
        50.0004         44.0004
  -1805035.74047  -1369589.46346  25104812.7824   25104813.5644   25104812.1054
        43.0004         38.0004
 15  1  1  0 12  0.0000000  0 12G14G31G06G29G20G25G23G32G03G02G12G10
  -1519804.14947  -1178734.29046  24249935.1794   24249934.3334   24249934.8314
        44.0004         38.0004
 -11709333.95449  -9119436.32848  21110248.1244   21110246.8624   21110248.4124
        56.0004         50.0004
 -10178450.78348  -7923679.25747  22269069.6074   22269073.2964   22269070.1964
        51.0004         46.0004
  -4586467.37447  -3394632.43046  24069568.6864   24069568.2034   24069569.1014
        45.0004         40.0004
 -18047342.29648 -14031593.50847  21897494.9984   21897493.9734   21897494.3794
        52.0004         46.0004
 -20030127.92249 -15553864.58548  21355779.4914   21355781.7244   21355779.3464
        54.0004         48.0004
 -10256620.41848  -7986598.86446  23753906.6884   23753903.7204   23753906.4834
        48.0004         41.0004
  -5378319.71547  -4187716.36846  24086968.6584   24086969.1074   24086968.0994
        46.0004         40.0004
 -16842172.50548 -13115152.31647  22105979.7154   22105981.7874   22105980.2344
        52.0004         47.0004
 -11110613.11948  -8632305.54647  23694219.0284   23694217.4544   23694218.5104
        48.0004         42.0004
  -7718542.33548  -6010705.89747  22894446.2234   22894446.4594   22894446.4074
        50.0004         44.0004
  -1921833.04647  -1460600.42146  25082587.0454   25082587.9634   25082586.3294
        44.0004         37.0004
 15  1  1  0 12 30.0000000  0 12G14G31G06G29G20G25G23G32G03G02G12G10
  -1410723.00447  -1093736.03446  24270692.6604   24270691.8174   24270692.3084
        45.0004         38.0004
 -11722795.44349  -9129925.80448  21107686.4914   21107685.2184   21107686.7854
        56.0004         50.0004
 -10183932.58648  -7927950.80647  22268026.4514   22268030.1604   22268027.0684
        51.0004         46.0004
  -4693623.82047  -3478130.92746  24049177.4564   24049176.9714   24049177.8724
        42.0004         40.0004
 -18039252.28748 -14025289.62247  21899034.4834   21899033.4684   21899033.8574
        52.0004         46.0004
 -20009196.40249 -15537554.38248  21359762.6804   21359764.9384   21359762.5494
        54.0004         48.0004
 -10354381.54548  -8062776.39146  23735303.3764   23735300.4174   23735303.1774
        49.0004         41.0004
  -5275553.49847  -4107638.78646  24106524.4104   24106524.8434   24106523.8444
        46.0004         40.0004
 -16795324.88748 -13078647.70147  22114894.5414   22114896.6134   22114895.0634
        52.0004         46.0004
 -11188311.36547  -8692849.56747  23679433.4994   23679431.9014   23679432.9614
        47.0004         42.0004
  -7625699.57148  -5938360.79647  22912113.5394   22912113.7784   22912113.7354
        50.0004         45.0004
  -2038446.56747  -1551468.16046  25060396.1974   25060397.1924   25060395.5374
        43.0004         38.0004
 15  1  1  0 13  0.0000000  0 12G14G31G06G29G20G25G23G32G03G02G12G10
  -1301454.40347  -1008591.66746  24291485.7714   24291484.9364   24291485.4354
        44.0004         37.0004
 -11735651.39949  -9139943.43548  21105240.0874   21105238.8274   21105240.3814
        56.0004         50.0004
 -10188763.65948  -7931715.23447  22267107.0944   22267110.7964   22267107.7014
        51.0004         46.0004
  -4800534.53247  -3561437.97946  24028833.0434   24028832.5424   24028833.4454
        43.0004         40.0004
 -18030513.14148 -14018479.90947  21900697.5114   21900696.4744   21900696.8754
        52.0004         46.0004
 -19987618.13049 -15520740.18448  21363868.9184   21363871.1784   21363868.7924
        54.0004         48.0004
 -10451858.07148  -8138732.16647  23716754.2434   23716751.2804   23716754.0484
        49.0004         42.0004
  -5172535.96847  -4027365.39846  24126128.0124   24126128.4574   24126127.4364
        45.0004         40.0004
 -16747894.97548 -13041689.38247  22123920.2004   22123922.2904   22123920.7144
        52.0004         47.0004
 -11265633.80048  -8753100.69547  23664719.4454   23664717.8084   23664718.9054
        48.0004         42.0004
  -7532465.13448  -5865710.63347  22929855.5114   22929855.7374   22929855.7094
        50.0004         44.0004
  -2154869.48047  -1642187.32246  25038241.7344   25038242.6754   25038240.9294
        42.0004         37.0004
 15  1  1  0 13 30.0000000  0 12G14G31G06G29G20G25G23G32G03G02G12G10
  -1192002.47547   -923304.44146  24312313.7734   24312312.9364   24312313.4414
        45.0004         37.0004
 -11747903.38749  -9149490.43948  21102908.6204   21102907.3454   21102908.8994
        56.0004         50.0004
 -10192945.92348  -7934973.98647  22266311.1164   22266314.7754   22266311.7354
        51.0004         46.0004
  -4907198.68947  -3644552.93846  24008535.5344   24008535.0604   24008535.9364
        46.0004         40.0004
 -18021127.28648 -14011166.25947  21902483.5694   21902482.5444   21902482.9574
        52.0004         46.0004
 -19965396.16149 -15503424.37248  21368097.6294   21368099.9024   21368097.4994
        54.0004         48.0004
 -10549049.71948  -8214466.01046  23698259.3704   23698256.4124   23698259.1604
        49.0004         41.0004
  -5069271.99347  -3946899.96746  24145778.4824   24145778.9354   24145777.9304
        45.0004         40.0004
 -16699886.50548 -13004280.19647  22133055.9094   22133058.0064   22133056.4234
        52.0004         46.0004
 -11342580.28248  -8813058.89547  23650076.9484   23650075.2844   23650076.4054
        48.0004         42.0004
  -7438842.56948  -5792758.03147  22947671.3104   22947671.5754   22947671.5134
        49.0004         44.0004
  -2271100.64847  -1732756.84346  25016123.4794   25016124.4604   25016122.6064
        42.0004         37.0004
 15  1  1  0 14  0.0000000  0 12G14G31G06G29G20G25G23G32G03G02G12G10
  -1082368.37547   -837875.27246  24333176.4724   24333175.5984   24333176.1204
        43.0004         37.0004
 -11759549.71649  -9158565.50248  21100692.3924   21100691.1264   21100692.6864
        56.0004         50.0004
 -10196478.20548  -7937726.35147  22265638.9054   22265642.5484   22265639.5034
        51.0004         46.0004
  -5013611.82447  -3727472.26546  23988285.7874   23988285.3234   23988286.1824
        46.0004         40.0004
 -18011093.89048 -14003348.02647  21904392.8764   21904391.8314   21904392.2334
        52.0004         46.0004
 -19942530.09349 -15485606.64748  21372448.8814   21372451.1604   21372448.7504
        54.0004         48.0004
 -10645952.42248  -8289974.66547  23679819.4384   23679816.5024   23679819.2354
        48.0004         42.0004
  -4965762.83447  -3866243.44746  24165475.6094   24165476.0344   24165475.0354
        46.0004         40.0004
 -16651299.93248 -12966420.58747  22142301.6704   22142303.7824   22142302.1904
        52.0004         46.0004
 -11419147.00948  -8872721.17347  23635506.6934   23635505.0234   23635506.1584
        48.0004         42.0004
  -7344832.85648  -5719503.72647  22965560.7734   22965561.0314   22965560.9874
        49.0004         44.0004
  -2387136.59246  -1823174.33446  24994042.4694   24994043.4674   24994041.5224
        40.0004         36.0004
 15  1  1  0 14 30.0000000  0 11G14G31G06G29G20G25G23G32G03G02G12
   -972554.71547   -752306.19446  24354073.3254   24354072.4514   24354072.9774
        46.0004         37.0004
 -11770590.65349  -9167168.83148  21098591.3804   21098590.0914   21098591.6634
        56.0004         50.0004
 -10199361.01148  -7939972.69047  22265090.3124   22265093.9634   22265090.9194
        51.0004         46.0004
  -5119771.90447  -3810194.42646  23968084.2144   23968083.7404   23968084.6134
        42.0004         40.0004
 -18000414.25448 -13995026.22247  21906425.1234   21906424.0944   21906424.4914
        52.0004         46.0004
 -19919021.50649 -15467288.28048  21376922.4264   21376924.7024   21376922.2954
        54.0004         48.0004
 -10742564.66948  -8365256.94247  23661434.7494   23661431.8084   23661434.5304
        49.0004         42.0004
  -4862011.70747  -3785398.40146  24185218.7824   24185219.2024   24185218.2244
        47.0004         41.0004
 -16602137.44048 -12928112.20047  22151657.0084   22151659.1314   22151657.5334
        52.0004         46.0004
 -11495332.83048  -8932086.77347  23621009.0304   23621007.3644   23621008.4924
        48.0004         42.0004
  -7250439.65348  -5645950.63447  22983523.2564   22983523.5284   22983523.4564
        50.0004         44.0004
 15  1  1  0 15  0.0000000  0 12G14G31G06G29G20G25G23G32G03G02G12G10
   -862563.56747   -666598.87446  24375003.9924   24375003.1524   24375003.6464
        42.0004         37.0004
 -11781025.52149  -9175299.89848  21096605.6954   21096604.4174   21096605.9794
        56.0004         50.0004
 -10201593.48548  -7941712.30147  22264665.5154   22264669.1504   22264666.1134
        51.0004         46.0004
  -5225675.51947  -3892716.69546  23947931.4064   23947930.9174   23947931.7814
        46.0004         40.0004
 -17989087.84248 -13986200.44247  21908580.4624   21908579.4264   21908579.8434
        52.0004         46.0004
 -19894870.76149 -15448469.58948  21381518.2214   21381520.5134   21381518.0874
        54.0004         48.0004
 -10838883.26548  -8440310.42747  23643105.9594   23643103.0224   23643105.7434
        49.0004         42.0004
  -4758020.65647  -3704366.43146  24205007.6324   24205008.0744   24205007.0734
        46.0004         40.0004
 -16552400.12648 -12889355.92247  22161121.7694   22161123.9064   22161122.2844
        52.0004         46.0004
 -11571134.44347  -8991152.90347  23606584.4224   23606582.7494   23606583.8764
        47.0004         42.0004
  -7155665.21748  -5572100.29847  23001558.1424   23001558.3674   23001558.3324
        50.0004         44.0004
  -1043191.69356   -775944.32655  24949993.9834   24949996.0024   24949992.9064
        36.0004         34.0004
 15  1  1  0 15 30.0000000  0 11G14G31G06G29G20G25G23G32G03G02G12
   -752397.76947   -580755.44446  24395967.8994   24395967.0594   24395967.5484
        43.0004         37.0004
 -11790854.64849  -9182958.95848  21094735.2684   21094733.9904   21094735.5514
        56.0004         50.0004
 -10203176.06348  -7942945.48247  22264364.3604   22264368.0034   22264364.9614
        51.0004         46.0004
  -5331320.72447  -3975037.68846  23927827.8374   23927827.3704   23927828.2134
        46.0004         40.0004
 -17977115.62348 -13976871.43247  21910858.6934   21910857.6764   21910858.0644
        52.0004         46.0004
 -19870079.29849 -15429151.60848  21386235.9134   21386238.2124   21386235.7674
        54.0004         48.0004
 -10934906.39248  -8515133.61047  23624833.3294   23624830.3774   23624833.1104
        49.0004         42.0004
  -4653792.70947  -3623149.86846  24224841.5664   24224842.0174   24224841.0034
        45.0004         40.0004
 -16502090.25748 -12850153.48747  22170695.4704   22170697.6264   22170695.9744
        51.0004         46.0004
 -11646550.34448  -9049918.50547  23592233.2154   23592231.5404   23592232.6774
        48.0004         42.0004
  -7060513.79148  -5497956.39947  23019664.8994   23019665.1634   23019665.1074
        49.0004         44.0004
 15  1  1  0 16  0.0000000  0 11G14G31G06G29G20G25G23G32G03G02G12
   -642060.27247   -494778.22046  24416964.4424   24416963.6214   24416964.1144
        43.0004         36.0004
 -11800078.35449  -9190146.26348  21092980.0474   21092978.7714   21092980.3544
        56.0004         50.0004
 -10204108.80948  -7943672.24347  22264186.8274   22264190.4474   22264187.4334
        51.0004         46.0004
  -5436704.48747  -4057154.80046  23907773.8934   23907773.3924   23907774.2594
        47.0004         40.0004
 -17964498.00548 -13967039.52447  21913259.7644   21913258.7284   21913259.1324
        52.0004         46.0004
 -19844648.23549 -15409335.21848  21391075.3044   21391077.5914   21391075.1634
        54.0004         48.0004
 -11030631.72848  -8589724.74947  23606617.3724   23606614.4254   23606617.1744
        49.0004         42.0004
  -4549330.85947  -3541751.04446  24244720.0004   24244720.4644   24244719.4374
        45.0004         40.0004
 -16451209.69348 -12810506.33047  22180377.7494   22180379.8984   22180378.2534
        51.0004         46.0004
 -11721578.31848  -9108381.80447  23577955.8324   23577954.1264   23577955.2894
        48.0004         42.0004
  -6964987.67648  -5423520.66947  23037843.0664   23037843.3754   23037843.2684
        49.0004         43.0004
 15  1  1  0 16 30.0000000  0 11G14G31G06G29G20G25G23G32G03G02G12
   -531551.99246   -408667.91246  24437993.5044   24437992.6934   24437993.1634
        41.0004         36.0004
 -11808695.23149  -9196860.70748  21091340.3054   21091339.0384   21091340.6054
        56.0004         50.0004
 -10204390.91448  -7943892.06747  22264133.1424   22264136.7624   22264133.7524
        51.0004         46.0004
  -5541823.41447  -4139065.65846  23887770.4334   23887769.9324   23887770.8094
        45.0004         40.0004
 -17951235.21148 -13956704.87347  21915783.5694   21915782.5384   21915782.9404
        52.0004         46.0004
 -19818577.48449 -15389020.29048  21396036.3524   21396038.6474   21396036.2204
        54.0004         48.0004
 -11126056.32148  -8664081.55547  23588458.6674   23588455.7054   23588458.4504
        49.0004         42.0004
  -4444636.71847  -3460171.21846  24264642.6584   24264643.1174   24264642.0994
        46.0004         40.0004
 -16399759.19348 -12770415.01947  22190168.4444   22190170.5994   22190168.9554
        51.0004         46.0004
 -11796215.19448  -9166540.31547  23563752.8324   23563751.1154   23563752.3044
        48.0004         43.0004
  -6869087.80148  -5348793.55047  23056092.2614   23056092.5614   23056092.4604
        50.0004         43.0004
 15  1  1  0 17  0.0000000  0 12G14G31G06G29G20G25G23G32G03G02G12G10
   -420877.55346   -322428.13746  24459054.1784   24459053.3724   24459053.8474
        41.0004         36.0004
 -11816707.22249  -9203103.81748  21089815.6904   21089814.4144   21089815.9804
        56.0004         50.0004
 -10204024.46648  -7943606.47447  22264202.8284   22264206.4534   22264203.4374
        50.0004         46.0004
  -5646676.82747  -4220769.54346  23867817.4344   23867816.9104   23867817.8054
        47.0004         40.0004
 -17937329.53848 -13945869.28947  21918429.7424   21918428.7114   21918429.1064
        52.0004         46.0004
 -19791870.71449 -15368209.84648  21401118.4914   21401120.7924   21401118.3644
        54.0004         48.0004
 -11221179.26248  -8738203.29247  23570357.3484   23570354.3824   23570357.1304
        49.0004         42.0004
  -4339715.10047  -3378414.08446  24284608.5674   24284609.0084   24284607.9894
        46.0004         40.0004
 -16347742.88848 -12729882.84647  22200066.8254   22200068.9744   22200067.3434
        51.0004         46.0004
 -11870460.82848  -9224393.90847  23549624.2554   23549622.4884   23549623.7094
        48.0004         42.0004
  -6772819.99648  -5273779.77747  23074411.4854   23074411.8214   23074411.6984
        49.0004         44.0004
                                  24862366.796
        42.000
 15  1  1  0 17 30.0000000  0 11G14G31G06G29G20G25G23G32G03G02G12
   -310034.30247   -236056.78346  24480146.9674   24480146.1594   24480146.6224
        42.0004         36.0004
 -11824109.00549  -9208871.43648  21088407.1734   21088405.8884   21088407.4514
        56.0004         50.0004
 -10203004.74048  -7942811.94247  22264396.9134   22264400.5514   22264397.5244
        50.0004         46.0004
  -5751256.92047  -4302260.51346  23847916.4904   23847915.9744   23847916.8524
        46.0004         41.0004
 -17922776.99948 -13934529.64447  21921198.9874   21921197.9504   21921198.3534
        52.0004         46.0004
 -19764523.84249 -15346900.67348  21406322.4924   21406324.8004   21406322.3524
        54.0004         48.0004
 -11315993.80948  -8812084.73947  23552314.7244   23552311.7604   23552314.5094
        49.0004         42.0004
  -4234563.71247  -3296477.97846  24304618.2504   24304618.6804   24304617.6604
        46.0004         40.0004
 -16295157.54448 -12688907.27047  22210073.4854   22210075.6444   22210074.0074
        51.0004         46.0004
 -11944308.33148  -9281937.39247  23535571.5244   23535569.7464   23535570.9954
        48.0004         42.0004
  -6676181.49648  -5198477.01547  23092801.1494   23092801.4914   23092801.3604
        49.0004         43.0004
 15  1  1  0 18  0.0000000  0 12G14G31G06G29G20G25G23G32G03G02G12G10
   -199030.17346   -149560.03146  24501270.3354   24501269.5084   24501269.9794
        39.0004         36.0004
 -11830906.04249  -9214167.82048  21087113.7224   21087112.4484   21087114.0134
        56.0004         50.0004
 -10201337.06248  -7941512.51947  22264714.3254   22264717.9764   22264714.9164
        51.0004         46.0004
  -5855566.79747  -4383541.03846  23828067.0584   23828066.5694   23828067.4204
        46.0004         41.0004
 -17907583.00848 -13922690.16847  21924090.3174   21924089.2764   21924089.6874
        52.0004         46.0004
 -19736543.33249 -15325097.76848  21411647.0844   21411649.4154   21411646.9514
        54.0004         48.0004
 -11410502.53848  -8885727.88647  23534330.3014   23534327.3354   23534330.0754
        50.0004         42.0004
  -4129190.42847  -3214368.98146  24324670.1474   24324670.6094   24324669.5764
        45.0004         39.0004
 -16242010.32348 -12647493.84047  22220187.0744   22220189.2304   22220187.5724
        52.0004         46.0004
 -12017760.61647  -9339172.77647  23521593.8994   23521592.0944   23521593.3564
        47.0004         42.0004
  -6579180.44148  -5122891.69947  23111259.7724   23111260.0904   23111259.9874
        49.0004         43.0004
                                  24818797.988
        43.000
 15  1  1  0 18 30.0000000  0 12G14G31G06G29G20G25G23G32G03G02G12G10
    -87864.47747    -62937.42546  24522424.4734   24522423.6554   24522424.1364
        44.0004         37.0004
 -11837095.04849  -9218990.41848  21085935.9894   21085934.7114   21085936.2824
        56.0004         50.0004
 -10199018.02048  -7939705.40047  22265155.5674   22265159.1964   22265156.1684
        51.0004         46.0004
  -5959600.27447  -4464606.30846  23808270.3104   23808269.8684   23808270.6694
        47.0004         41.0004
 -17891745.00148 -13910348.86847  21927104.1964   21927103.1494   21927103.5614
        52.0004         46.0004
 -19707926.89449 -15302799.26948  21417092.6124   21417094.9724   21417092.4874
        54.0004         48.0004
 -11504700.29848  -8959128.71147  23516405.0384   23516402.0614   23516404.8184
        49.0004         42.0004
  -4023594.79947  -3132086.72946  24344764.3574   24344764.8524   24344763.7914
        45.0004         39.0004
 -16188299.89448 -12605641.55247  22230407.8024   22230409.9804   22230408.3244
        51.0004         46.0004
 -12090812.48248  -9396096.20947  23507692.5084   23507690.6794   23507691.9824
        48.0004         43.0004
  -6481816.60648  -5047023.73547  23129787.4654   23129787.7674   23129787.6664
        49.0004         43.0004
   -770962.36957   -423936.71055  24797076.5994   24797077.3434   24797075.7204
        42.0004         35.0004
 15  1  1  0 19  0.0000000  0 12G14G31G06G29G20G25G23G32G03G02G12G10
     23458.55947     23807.79846  24543608.5464   24543607.7354   24543608.2184
        42.0004         37.0004
 -11842677.94149  -9223340.71848  21084873.6104   21084872.3174   21084873.8964
        56.0004         50.0004
 -10196050.36748  -7937392.99747  22265720.3234   22265723.9844   22265720.9454
        51.0004         46.0004
  -6063356.14347  -4545455.03846  23788526.2284   23788525.7954   23788526.5894
        47.0004         41.0004
 -17875265.88648 -13897507.98547  21930240.0424   21930239.0184   21930239.4284
        52.0004         46.0004
 -19678678.10249 -15280008.07148  21422658.5314   21422660.8824   21422658.4054
        54.0004         48.0004
 -11598586.66648  -9032286.91047  23498539.0594   23498536.0654   23498538.8384
        50.0004         42.0004
  -3917781.69347  -3049635.04046  24364900.0044   24364900.4894   24364899.4224
        46.0004         40.0004
 -16134030.31848 -12563353.56947  22240734.9744   22240737.1254   22240735.4914
        51.0004         46.0004
 -12163464.21048  -9452707.94247  23493867.3334   23493865.5124   23493866.8164
        48.0004         42.0004
  -6384094.78748  -4970876.80147  23148383.2684   23148383.5534   23148383.4774
        49.0004         43.0004
   -884886.62447   -512709.09246  24775397.6004   24775399.2794   24775396.9144
        44.0004         36.0004
 15  1  1  0 19 30.0000000  0 12G14G31G06G29G20G25G23G32G03G02G12G10
    134937.10747    110674.17046  24564822.2204   24564821.4304   24564821.8954
        42.0004         37.0004
 -11847654.08049  -9227218.22148  21083926.6664   21083925.3874   21083926.9554
        56.0004         50.0004
 -10192433.01548  -7934574.16847  22266408.6074   22266412.2274   22266409.2174
        51.0004         46.0004
  -6166831.25347  -4626085.03046  23768835.6054   23768835.1784   23768835.9584
        47.0004         41.0004
 -17858145.64748 -13884167.53347  21933497.9264   21933496.8794   21933497.2864
        52.0004         46.0004
 -19648797.15449 -15256724.21848  21428344.6914   21428347.0564   21428344.5594
        54.0004         48.0004
 -11692158.57048  -9105200.08047  23480732.9064   23480729.9254   23480732.6864
        49.0004         43.0004
  -3811752.84447  -2967015.11846  24385076.5934   24385077.0784   24385076.0124
        45.0004         39.0004
 -16079202.76948 -12520630.81547  22251168.3134   22251170.4844   22251168.8284
        51.0004         46.0004
 -12235712.20648  -9509004.89847  23480118.8644   23480116.9814   23480118.3394
        48.0004         43.0004
  -6286017.59848  -4894453.06547  23167046.7714   23167047.0714   23167046.9644
        49.0004         44.0004
   -998583.08647   -601303.87646  24753762.1564   24753763.5914   24753761.2204
        45.0004         36.0004
 15  1  1  0 20  0.0000000  0 12G14G31G06G29G20G25G23G32G03G02G12G10
    246571.68547    197662.12346  24586065.6224   24586064.8034   24586065.2724
        43.0004         37.0004
 -11852020.52449  -9230620.63948  21083095.7514   21083094.4774   21083096.0434
        56.0004         50.0004
 -10188163.37948  -7931246.94747  22267220.9084   22267224.4744   22267221.5144
        51.0004         46.0004
  -6270019.99747  -4706491.68446  23749199.3154   23749198.8474   23749199.6554
        45.0004         41.0004
 -17840382.30548 -13870325.95847  21936878.1584   21936877.1224   21936877.5404
        52.0004         46.0004
 -19618282.53149 -15232946.59348  21434151.4394   21434153.7844   21434151.2984
        54.0004         48.0004
 -11785410.63648  -9177864.02747  23462987.6254   23462984.6544   23462987.4034
        50.0004         43.0004
  -3705508.13147  -2884227.05846  24405294.3024   24405294.8094   24405293.7294
        44.0004         39.0004
 -16023816.23548 -12477472.48147  22261708.0254   22261710.1964   22261708.5344
        51.0004         46.0004
 -12307551.77348  -9564983.57347  23466448.0984   23466446.1684   23466447.5534
        49.0004         43.0004
  -6187583.90248  -4817751.29247  23185777.9434   23185778.1944   23185778.1414
        49.0004         43.0004
  -1112046.89847   -689717.37246  24732170.8914   24732172.1214   24732169.7504
        44.0004         37.0004
 15  1  1  0 20 30.0000000  0 12G14G31G06G29G20G25G23G32G03G02G12G10
    358357.74347    284768.12846  24607337.8024   24607336.9974   24607337.4704
        43.0004         37.0004
 -11855779.35249  -9233549.59648  21082380.4694   21082379.1914   21082380.7604
        56.0004         50.0004
 -10183244.75348  -7927414.34247  22268156.9554   22268160.5404   22268157.5614
        50.0004         46.0004
  -6372922.04547  -4786675.09346  23729617.7014   23729617.2384   23729618.0494
        46.0004         41.0004
 -17821978.70448 -13855985.48447  21940380.2554   21940379.2054   21940379.6144
        52.0004         46.0004
 -19587137.64949 -15208677.85848  21440078.1004   21440080.4604   21440077.9864
        54.0004         48.0004
 -11878342.59748  -9250278.53647  23445303.2584   23445300.2854   23445303.0334
        50.0004         43.0004
  -3599052.54447  -2801274.69046  24425552.1634   24425552.6544   24425551.5894
        44.0004         38.0004
 -15967874.94648 -12433881.88247  22272353.3044   22272355.4724   22272353.8134
        51.0004         46.0004
 -12378983.40848  -9620644.56647  23452855.0934   23452853.1714   23452854.5584
        48.0004         43.0004
  -6088799.89148  -4740776.77147  23204575.9404   23204576.1954   23204576.1334
        49.0004         43.0004
  -1225276.65947   -777948.16946  24710623.7944   24710624.9334   24710622.6224
        45.0004         37.0004
 15  1  1  0 21  0.0000000  0 12G14G31G06G29G20G25G23G32G03G02G12G10
    470291.19947    371988.98446  24628638.0714   24628637.2484   24628637.7234
        42.0004         37.0004
 -11858932.26449  -9236006.41348  21081780.5054   21081779.2104   21081780.7904
        56.0004         50.0004
 -10177677.89748  -7923076.48747  22269216.2754   22269219.8414   22269216.8674
        51.0004         46.0004
  -6475536.29847  -4866634.38646  23710090.9494   23710090.5404   23710091.3104
        46.0004         41.0004
 -17802936.91448 -13841147.72647  21944003.7944   21944002.7254   21944003.1514
        52.0004         46.0004
 -19555365.19448 -15183920.12348  21446124.2224   21446126.5924   21446124.0964
        53.0004         48.0004
 -11970953.86848  -9322443.14947  23427679.9054   23427676.9324   23427679.6854
        50.0004         43.0004
  -3492389.97547  -2718161.04046  24445849.3954   24445849.9004   24445848.8184
        44.0004         38.0004
 -15911382.18648 -12389861.57947  22283103.5394   22283105.7144   22283104.0464
        51.0004         46.0004
 -12450005.82448  -9675986.51647  23439339.8144   23439337.8514   23439339.2924
        48.0004         43.0004
  -5989669.32448  -4663532.22247  23223439.8964   23223440.1634   23223440.1004
        49.0004         43.0004
  -1338271.66847   -865996.50246  24689121.7054   24689122.9824   24689120.5714
        43.0004         37.0004
 15  1  1  0 21 30.0000000  0 12G14G31G06G29G20G25G23G32G03G02G12G10
    582370.21946    459323.24046  24649966.0324   24649965.2334   24649965.6774
        41.0004         37.0004
 -11861478.97149  -9237990.85948  21081295.8854   21081294.5874   21081296.1584
        56.0004         50.0004
 -10171463.02148  -7918233.67447  22270398.8724   22270402.4364   22270399.4764
        51.0004         46.0004
  -6577859.22647  -4946366.58646  23690619.5854   23690619.1834   23690619.9254
        47.0004         41.0004
