     2.11           OBSERVATION DATA    G (GPS)             RINEX VERSION / TYPE
teqc  2013Mar15     gpsops              20150102 00:12:09UTCPGM / RUN BY / DATE
Linux 2.4.21-27.ELsmp|Opteron|gcc -static|Linux x86_64|=+   COMMENT
BIT 2 OF LLI FLAGS DATA COLLECTED UNDER A/S CONDITION       COMMENT
BOGT                                                        MARKER NAME
41901M001                                                   MARKER NUMBER
GGN                 JPL                                     OBSERVER / AGENCY
UC120031609         ASHTECH UZ-12       CQ00                REC # / TYPE / VERS
CR620024311         ASH701945E_M    NONE                    ANT # / TYPE
  1744399.0397 -6116037.5577   512731.7532                  APPROX POSITION XYZ
        0.0610        0.0000        0.0000                  ANTENNA: DELTA H/E/N
     1     1                                                WAVELENGTH FACT L1/2
     7    L1    L2    P1    P2    C1    S1    S2            # / TYPES OF OBSERV
    30.0000                                                 INTERVAL
                                                            COMMENT
This data is provided as a public service by NASA/JPL.      COMMENT
No warranty is expressed or implied regarding suitability   COMMENT
for use.  For further information, contact:                 COMMENT
Dave Stowers, NASA/JPL m/s 238-600                          COMMENT
4800 Oak Grove Drive, Pasadena CA 91109 USA                 COMMENT
                                                            COMMENT
Forced Modulo Decimation to 30 seconds                      COMMENT
 SNR is mapped to RINEX snr flag value [0-9]                COMMENT
  L1 & L2: min(max(int(snr_dBHz/6), 0), 9)                  COMMENT
pseudorange smoothing corrections not applied               COMMENT
  2015     1     1     0     0    0.0000000     GPS         TIME OF FIRST OBS
                                                            END OF HEADER
 15  1  1  0  0  0.0000000  0  9G18G04G27G22G31G16G08G14G32
  -5746582.28047  -4354531.06146  23607290.9034   23607302.0224   23607293.108
        43.0004         39.0004
  -1474196.67747  -1141581.99246  24540601.1894   24540612.6744   24540601.524
        42.0004         38.0004
  -2488474.16347  -1890354.39846  23961100.8964   23961117.4724   23961100.378
        45.0004         40.0004
 -18857743.88649 -14640970.08248  20977722.6224   20977729.8094   20977723.470
        54.0004         49.0004
  -7299012.84548  -5627961.85747  22862051.2444   22862056.2364   22862050.606
        49.0004         44.0004
 -18225312.24349 -14128267.11248  21103280.3254   21103287.7144   21103280.029
        54.0004         49.0004
  -4577672.02947  -3558893.96746  23211940.1084   23211948.3884   23211939.977
        44.0004         39.0004
 -10471548.98948  -8114971.63047  22032821.8304   22032830.2644   22032822.305
        50.0004         46.0004
 -12092944.73948  -9374770.81147  22317814.8904   22317822.6604   22317815.056
        51.0004         47.0004
 15  1  1  0  0 30.0000000  0  9G18G04G27G22G31G16G08G14G32
  -5640478.78447  -4271852.61746  23627484.9774   23627491.8714   23627482.897
        43.0004         38.0004
  -1461374.22847  -1131590.50846  24543041.8364   24543049.9514   24543041.116
        42.0004         37.0004
  -2562770.42447  -1948247.44346  23946960.5304   23946978.4144   23946959.985
        45.0004         40.0004
 -18788663.27549 -14587141.25148  20990868.1244   20990876.0224   20990869.130
        54.0004         49.0004
  -7255319.14648  -5593914.78547  22870365.8054   22870369.4634   22870365.552
        49.0004         44.0004
 -18290363.23649 -14178956.11948  21090901.5524   21090909.5744   21090901.858
        54.0004         49.0004
  -4566220.21047  -3549970.46446  23214120.8424   23214129.0794   23214119.981
        43.0004         39.0004
 -10496449.92948  -8134375.03947  22028083.9274   22028091.4334   22028084.098
        50.0004         46.0004
 -12158050.74148  -9425502.74247  22305425.8434   22305433.6124   22305426.587
        51.0004         46.0004
 15  1  1  0  1  0.0000000  0 10G18G04G27G22G31G29G16G08G14G32
  -5534284.05047  -4189103.08446  23647691.4704   23647700.8984   23647691.336
        43.0004         38.0004
  -1448493.64747  -1121553.74346  24545492.7504   24545502.9384   24545493.325
        42.0004         37.0004
  -2637238.35847  -2006274.28346  23932790.4384   23932807.3294   23932790.925
        45.0004         40.0004
 -18719206.01749 -14533018.92548  21004085.3924   21004093.6434   21004086.076
        54.0004         49.0004
  -7211761.41248  -5559973.65147  22878654.0344   22878659.8234   22878653.673
        49.0004         44.0004
  -1282816.21148   -999428.16645  24543014.5514   24543025.8464   24543012.337
        53.0004         35.0004
 -18354915.11549 -14229256.21048  21078617.6594   21078625.6704   21078618.001
        54.0004         49.0004
  -4554686.30847  -3540982.98346  23216314.2664   23216321.5514   23216315.508
        43.0004         39.0004
 -10521166.03448  -8153634.42147  22023379.9234   22023388.2194   22023380.182
        50.0004         45.0004
 -12222792.38748  -9475950.73847  22293105.3424   22293113.8924   22293105.801
        51.0004         46.0004
 15  1  1  0  1 30.0000000  0  9G18G04G27G22G31G16G08G14G32
  -5427996.58547  -4106281.30046  23667916.9334   23667928.5544   23667917.404
        43.0004         38.0004
  -1435552.44547  -1111469.72746  24547955.4154   24547965.9734   24547954.827
        42.0004         37.0004
  -2711871.95947  -2064430.19946  23918588.2244   23918605.3574   23918588.270
        45.0004         41.0004
 -18649370.46249 -14478601.83048  21017375.0744   21017382.8014   21017375.432
        54.0004         49.0004
  -7168336.76848  -5526136.21147  22886918.2814   22886922.4424   22886916.740
        49.0004         44.0004
 -18418961.09749 -14279162.10748  21066429.6584   21066438.0324   21066430.085
        54.0004         49.0004
  -4543068.19747  -3531929.87946  23218524.8974   23218532.0684   23218525.390
        44.0004         39.0004
 -10545690.49348  -8172744.45947  22018712.5594   22018721.3264   22018713.580
        50.0004         45.0004
 -12287163.48548  -9526109.98747  22280856.3754   22280863.8014   22280856.433
        51.0004         46.0004
 15  1  1  0  2  0.0000000  0  9G18G04G27G22G31G16G08G14G32
  -5321621.94747  -4023391.63446  23688159.5164   23688168.0074   23688159.760
        43.0004         38.0004
  -1422555.81447  -1101342.51846  24550429.0744   24550440.2484   24550427.880
        42.0004         37.0004
  -2786672.40847  -2122716.15246  23904353.4504   23904371.3504   23904353.973
        46.0004         41.0004
 -18579161.81649 -14423894.01948  21030735.3914   21030743.5004   21030736.108
        54.0004         49.0004
  -7125049.50948  -5492405.82747  22895155.2704   22895159.8104   22895154.721
        49.0004         44.0004
 -18482502.25949 -14328674.63248  21054338.0644   21054346.0324   21054338.376
        54.0004         49.0004
  -4531370.95747  -3522815.09846  23220751.9674   23220758.5634   23220753.403
        44.0004         40.0004
 -10570023.89248  -8191705.62447  22014083.5134   22014090.5934   22014083.159
        50.0004         46.0004
 -12351165.23848  -9575981.42347  22268676.8384   22268684.7734   22268677.043
        51.0004         46.0004
 15  1  1  0  2 30.0000000  0 10G18G04G27G22G31G29G16G08G14G32
  -5215159.09847  -3940433.22346  23708418.0824   23708428.4764   23708419.560
        43.0004         38.0004
  -1409502.46946  -1091171.18246  24552913.2614   24552920.6454   24552910.454
        41.0004         36.0004
  -2861634.29647  -2181127.90746  23890090.2534   23890106.5954   23890089.675
        46.0004         41.0004
 -18508579.08049 -14368894.71648  21044166.8164   21044175.4624   21044167.638
        54.0004         49.0004
  -7081897.18948  -5458780.58347  22903366.1794   22903371.2304   22903366.239
        49.0004         44.0004
  -1196475.12749   -932084.26346  24558046.0594   24558059.8624   24558045.600
        54.0004         38.0004
 -18545532.70949 -14377789.20248  21042343.7714   21042351.7514   21042344.258
        54.0004         49.0004
  -4519593.21047  -3513637.59346  23222993.3944   23223000.9764   23222993.624
        45.0004         40.0004
 -10594160.23948  -8210513.24247  22009489.7504   22009498.7454   22009489.819
        50.0004         46.0004
 -12414792.24248  -9625560.86647  22256569.3364   22256576.7074   22256569.272
        51.0004         46.0004
 15  1  1  0  3  0.0000000  0 10G18G04G27G22G31G29G16G08G14G32
  -5108613.68947  -3857410.49446  23728693.2964   23728702.2264   23728694.075
        43.0004         39.0004
  -1396397.25646  -1080959.40346  24555405.2544   24555417.5494   24555404.896
        41.0004         36.0004
  -2936758.79647  -2239666.34246  23875793.9174   23875811.0764   23875793.043
        46.0004         41.0004
 -18437627.92949 -14313608.33548  21057668.2084   21057676.8924   21057668.915
        54.0004         49.0004
  -7038884.24448  -5425263.95647  22911551.9864   22911557.1474   22911550.807
        49.0004         44.0004
  -1169456.09248   -911029.36246  24563187.7884   24563201.9594   24563185.233
        48.0004         37.0004
 -18608053.76749 -14426506.84448  21030446.6974   21030454.7434   21030446.779
        54.0004         49.0004
  -4507739.76947  -3504401.10046  23225248.5214   23225255.7004   23225248.220
        45.0004         40.0004
 -10618100.22848  -8229167.84447  22004934.3234   22004942.2234   22004934.017
        50.0004         45.0004
 -12478045.69748  -9674849.21547  22244531.9084   22244539.5914   22244532.729
        51.0004         46.0004
 15  1  1  0  3 30.0000000  0 10G18G04G27G22G31G29G16G08G14G32
  -5001987.59247  -3774324.86846  23748983.6774   23748992.2764   23748983.481
        43.0004         39.0004
  -1383241.06046  -1070707.90045  24557909.2514   24557920.1984   24557910.300
        40.0004         35.0004
  -3012042.69347  -2298328.97746  23861467.6834   23861485.6054   23861467.261
        46.0004         41.0004
 -18366309.68349 -14258035.91048  21071240.6054   21071248.6684   21071241.277
        54.0004         49.0004
  -6996010.33648  -5391855.67947  22919710.5314   22919714.9914   22919709.971
        49.0004         44.0004
  -1142094.57847   -889707.95146  24568394.5944   24568407.0874   24568392.016
        44.0004         37.0004
 -18670061.94649 -14474824.84848  21018646.2564   21018654.6074   21018646.647
        54.0004         49.0004
  -4495811.30847  -3495106.15746  23227518.3754   23227526.7024   23227517.495
        44.0004         40.0004
 -10641839.92948  -8247666.38947  22000416.3934   22000424.2524   22000416.394
        50.0004         45.0004
 -12540922.27848  -9723843.88747  22232566.8334   22232574.5984   22232567.718
        51.0004         46.0004
 15  1  1  0  4  0.0000000  0 10G18G04G27G22G31G29G16G08G14G32
  -4895283.42447  -3691178.42646  23769287.7174   23769296.9894   23769288.440
        43.0004         39.0004
  -1370036.27046  -1060418.57545  24560424.4144   24560430.4774   24560421.686
        39.0004         34.0004
  -3087484.57747  -2357114.72346  23847111.4484   23847128.3664   23847110.498
        45.0004         40.0004
 -18294627.12048 -14202179.60648  21084880.9394   21084889.2894   21084882.201
        53.0004         49.0004
  -6953277.51848  -5358557.32947  22927842.5304   22927846.8354   22927841.232
        48.0004         44.0004
  -1114390.99947   -868120.54946  24573663.2874   24573677.0734   24573663.128
        42.0004         37.0004
 -18731555.61149 -14522741.92748  21006944.5154   21006952.6364   21006945.013
        54.0004         49.0004
  -4483810.17847  -3485754.59046  23229801.5334   23229808.6724   23229802.261
        44.0004         39.0004
 -10665377.32148  -8266007.28647  21995938.1104   21995946.5384   21995937.835
        50.0004         45.0004
 -12603420.66748  -9772543.88247  22220674.2354   22220681.5224   22220674.388
        51.0004         46.0004
 15  1  1  0  4 30.0000000  0 10G18G04G27G22G31G29G16G08G14G32
  -4788504.42047  -3607973.72146  23789606.1144   23789615.6404   23789606.684
        43.0004         39.0004
  -1356785.48346  -1050093.37945  24562947.5764   24562957.6194   24562945.758
        38.0004         33.0004
  -3163082.96247  -2416022.41546  23832725.2734   23832742.6844   23832723.795
        45.0004         40.0004
 -18222583.09548 -14146041.64148  21098590.5634   21098598.9874   21098591.609
        53.0004         49.0004
  -6910687.00248  -5325369.87547  22935946.7914   22935951.2974   22935945.223
        48.0004         44.0004
  -1086342.27247   -846263.48346  24579000.1394   24579014.3224   24579000.681
        42.0004         38.0004
 -18792533.22649 -14570256.89148  20995341.5604   20995349.2904   20995341.794
        54.0004         49.0004
  -4471738.83247  -3476348.31346  23232099.6014   23232106.0304   23232100.384
        44.0004         40.0004
 -10688710.22548  -8284188.85047  21991498.0674   21991506.4294   21991498.504
        50.0004         46.0004
 -12665539.46048  -9820948.08847  22208853.8694   22208860.4864   22208853.648
        51.0004         47.0004
 15  1  1  0  5  0.0000000  0 10G18G04G27G22G31G29G16G08G14G32
  -4681652.25947  -3524711.99746  23809938.9754   23809948.5074   23809940.112
        44.0004         39.0004
  -1343490.02646  -1039733.39445  24565480.0064   24565487.7814   24565473.121
        38.0004         33.0004
  -3238835.18147  -2475049.99246  23818310.4824   23818326.1364   23818310.018
        45.0004         40.0004
 -18150179.64448 -14089623.59648  21112368.9094   21112377.1904   21112369.484
        53.0004         49.0004
  -6868239.50048  -5292293.85847  22944023.0774   22944028.7734   22944023.063
        48.0004         44.0004
  -1057948.36547   -824137.65746  24584403.2934   24584417.1934   24584403.424
        42.0004         37.0004
 -18852991.59749 -14617367.24748  20983835.9684   20983843.9024   20983836.308
        54.0004         49.0004
  -4459598.48747  -3466888.24846  23234409.7684   23234417.9094   23234409.774
        44.0004         39.0004
 -10711835.67548  -8302208.76447  21987097.3374   21987105.3634   21987098.017
        50.0004         46.0004
 -12727276.13548  -9869054.52847  22197104.8094   22197111.8514   22197105.701
        51.0004         47.0004
 15  1  1  0  5 30.0000000  0 10G18G04G27G22G31G29G16G08G14G32
  -4574731.57147  -3441396.84346  23830285.0454   23830294.1704   23830285.072
        44.0004         39.0004
  -1330154.06246  -1029341.85645  24568012.2564   24568026.9954   24568012.447
        37.0004         33.0004
  -3314741.42647  -2534197.58446  23803865.5864   23803882.3174   23803865.128
        45.0004         41.0004
 -18077421.40248 -14032929.10048  21126214.2744   21126223.0904   21126215.260
        53.0004         49.0004
  -6825938.05048  -5259331.63847  22952073.6064   22952078.8144   22952073.682
        48.0004         44.0004
  -1029210.08746                  24589871.8454                   24589871.307
        41.0004
 -18912930.99149 -14664073.20648  20972429.9494   20972437.7474   20972430.145
        54.0004         49.0004
  -4447393.31747  -3457377.67846  23236731.7984   23236739.0894   23236732.837
        44.0004         39.0004
 -10734753.25148  -8320066.70947  21982737.1494   21982744.3584   21982737.390
        50.0004         46.0004
 -12788630.95648  -9916863.43747  22185429.9474   22185436.9924   22185429.672
        51.0004         47.0004
 15  1  1  0  6  0.0000000  0 10G18G04G27G22G31G29G16G08G14G32
  -4467740.79047  -3358026.99346  23850644.1814   23850653.7504   23850644.117
        43.0004         38.0004
  -1316775.31646  -1018916.98045  24570561.2984   24570573.9054   24570558.613
        38.0004         33.0004
  -3390795.63347  -2593460.48047  23789392.6324   23789409.6104   23789393.013
        46.0004         42.0004
 -18004306.48849 -13975956.68148  21140127.7014   21140136.9334   21140128.405
        54.0004         49.0004
  -6783779.58048  -5226480.84747  22960095.8154   22960100.9874   22960095.590
        48.0004         44.0004
  -1000123.09947   -779076.35046  24595407.3364   24595420.9104   24595406.197
        42.0004         38.0004
 -18972345.39549 -14710370.08148  20961123.8584   20961131.2904   20961123.960
        54.0004         49.0004
  -4435121.12447  -3447814.89246  23239067.8054   23239073.5494   23239066.563
        44.0004         39.0004
 -10757456.48148  -8337757.61547  21978416.8644   21978424.2984   21978416.297
        50.0004         46.0004
 -12849598.05048  -9964370.21747  22173828.3004   22173835.7144   22173829.186
        51.0004         47.0004
 15  1  1  0  6 30.0000000  0 10G18G04G27G22G31G29G16G08G14G32
  -4360689.20447  -3274609.72846  23871016.4804   23871023.4374   23871016.855
        43.0004         38.0004
                  -1008465.69445                  24573123.1634   24573111.560
                        32.0004
  -3467002.48847  -2652842.34147  23774890.3574   23774907.9254   23774889.626
        46.0004         42.0004
 -17930844.38649 -13918713.72048  21154107.3554   21154116.0864   21154107.642
        54.0004         49.0004
  -6741772.03448  -5193747.66447  22968088.6584   22968094.9944   22968089.318
        48.0004         44.0004
   -970693.17847   -756142.47946  24601004.3244   24601019.7084   24601006.195
        42.0004         38.0004
 -19031239.83849 -14756261.79248  20949917.0874   20949924.3404   20949917.174
        54.0004         49.0004
  -4422790.42447  -3438206.51446  23241411.8464   23241420.9264   23241414.106
        43.0004         38.0004
 -10779949.43048  -8355284.66947  21974136.0574   21974144.1194   21974136.329
        50.0004         46.0004
 -12910182.26948 -10011578.65947  22162299.3024   22162306.5194   22162299.367
        51.0004         47.0004
 15  1  1  0  7  0.0000000  0  9G18G27G22G31G29G16G08G14G32
  -4253566.86647  -3191137.30846  23891398.8254   23891409.7484   23891400.396
        42.0004         37.0004
  -3543347.36247  -2712331.72947  23760362.8634   23760379.5984   23760362.415
        46.0004         42.0004
 -17857024.71348 -13861192.13448  21168155.3104   21168164.1984   21168156.368
        53.0004         49.0004
  -6699903.86348  -5161123.06647  22976057.6414   22976061.7034   22976057.514
        48.0004         44.0004
   -940909.81446                  24606675.2214                   24606673.997
        41.0004
 -19089599.57849 -14801736.84148  20938811.1564   20938818.7694   20938811.261
        54.0004         49.0004
  -4410390.55347  -3428544.24646  23243774.1524   23243780.2924   23243773.317
        43.0004         38.0004
 -10802216.58348  -8372635.77147  21969899.0024   21969906.8734   21969898.578
        50.0004         46.0004
 -12970369.13148 -10058477.48047  22150846.4904   22150853.0944   22150847.140
        51.0004         47.0004
 15  1  1  0  7 30.0000000  0  9G18G27G22G31G29G16G08G14G32
  -4146394.03046  -3107625.54046  23911795.8064   23911799.9154   23911794.655
        41.0004         36.0004
  -3619845.91147  -2771940.84247  23745804.3714   23745821.9244   23745804.437
        46.0004         42.0004
 -17782867.86748 -13803407.82148  21182267.1004   21182275.1634   21182267.754
        53.0004         49.0004
  -6658193.93448  -5128621.78247  22983993.6024   22983998.1974   22983994.261
        48.0004         44.0004
                                                                  24612403.953

 -19147440.27749 -14846807.44148  20927804.4654   20927811.7154   20927804.486
        54.0004         49.0004
  -4397941.40747  -3418843.56246  23246141.8674   23246148.1874   23246141.593
        43.0004         38.0004
 -10824273.64448  -8389823.16347  21965701.7524   21965709.8764   21965701.867
        50.0004         46.0004
 -13030174.57948 -10105079.09947  22139465.3284   22139472.5824   22139465.823
        51.0004         47.0004
 15  1  1  0  8  0.0000000  0  9G18G27G22G31G29G16G08G14G32
  -4039162.83446  -3024068.33846  23932202.4204   23932208.5564   23932199.615
        40.0004         36.0004
  -3696485.62147  -2831659.96547  23731221.3844   23731238.1774   23731221.379
        46.0004         42.0004
 -17708365.92948 -13745354.60648  21196444.5314   21196453.2434   21196445.498
        53.0004         49.0004
  -6616632.65748  -5096236.34347  22991902.8914   22991907.4294   22991902.561
        48.0004         44.0004
   -878326.15658   -684664.79846  24618204.1155   24618214.0884   24618202.955
        50.0004         36.0004
 -19204749.33749 -14891463.77548  20916898.6004   20916906.2084   20916899.010
        54.0004         50.0004
  -4385434.24247  -3409097.66746  23248522.6344   23248530.3604   23248521.486
        43.0004         38.0004
 -10846107.77648  -8406836.86647  21961546.3774   21961554.7144   21961546.968
        50.0004         46.0004
 -13089586.34248 -10151373.94747  22128159.2464   22128167.1344   22128160.347
        51.0004         47.0004
 15  1  1  0  8 30.0000000  0  9G18G27G22G31G29G16G08G14G32
  -3931878.76746  -2940469.97345  23952616.1544   23952621.3934   23952614.661
        40.0004         35.0004
  -3773267.54347  -2891489.91547  23716610.9564   23716627.0924   23716611.399
        47.0004         42.0004
 -17633524.54348 -13687036.88548  21210686.5724   21210695.2264   21210687.347
        53.0004         49.0004
  -6575224.11748  -5063969.90647  22999782.3404   22999787.4414   22999781.371
        48.0004         44.0004
                                                                  24624064.284

 -19261528.16349 -14935706.93748  20906094.3204   20906101.2544   20906094.419
        54.0004         50.0004
  -4372873.93547  -3399310.38146  23250912.5514   23250918.9864   23250913.427
        43.0004         39.0004
 -10867719.04848  -8423676.90847  21957434.2514   21957442.4414   21957434.358
        51.0004         46.0004
 -13148605.72248 -10197363.05247  22116928.1244   22116936.2244   22116929.180
        52.0004         47.0004
 15  1  1  0  9  0.0000000  0  8G18G27G22G31G16G08G14G32
  -3824542.70446  -2856831.10045  23973037.4844   23973048.1844   23973040.992
        40.0004         35.0004
  -3850187.92047  -2951427.73447  23701972.3824   23701990.7674   23701971.853
        47.0004         42.0004
 -17558344.46548 -13628455.26448  21224993.0964   21225001.7164   21224993.799
        53.0004         49.0004
  -6533967.87048  -5031822.14347  23007633.4844   23007638.8664   23007633.741
        48.0004         44.0004
 -19317773.23249 -14979534.17648  20895390.8154   20895398.8464   20895391.234
        54.0004         50.0004
  -4360260.80747  -3389481.94846  23253313.4044   23253319.3994   23253314.428
        43.0004         39.0004
 -10889103.59748  -8440340.26947  21953364.7344   21953373.7864   21953365.287
        51.0004         46.0004
 -13207229.35348 -10243043.77347  22105773.2694   22105780.3654   22105773.328
        52.0004         47.0004
 15  1  1  0  9 30.0000000  0  8G18G27G22G31G16G08G14G32
  -3717160.71846  -2773156.34345  23993474.3704   23993479.8354   23993473.388
        40.0004         35.0004
  -3927248.40147  -3011474.72847  23687308.3694   23687325.6154   23687308.426
        47.0004         42.0004
 -17482832.22548 -13569614.80648  21239362.6964   21239371.6284   21239363.329
        53.0004         49.0004
  -6492868.44348  -4999796.59147  23015455.3824   23015458.9124   23015454.765
        48.0004         44.0004
 -19373486.57749 -15022947.07648  20884788.7424   20884796.4344   20884788.948
        54.0004         50.0004
  -4347600.66747  -3379616.85846  23255721.2354   23255728.0074   23255722.461
        43.0004         38.0004
 -10910262.73948  -8456827.98747  21949339.2344   21949346.5634   21949338.905
        51.0004         46.0004
 -13265459.16748 -10288417.61947  22094692.2934   22094699.8334   22094692.760
        52.0004         47.0004
 15  1  1  0 10  0.0000000  0  9G18G27G22G31G29G16G08G14G32
  -3609730.77846  -2689444.30945  24013914.8724   24013921.3374   24013916.355
        40.0004         35.0004
  -4004442.07747  -3071625.50347  23672618.6684   23672636.4184   23672618.996
        46.0004         42.0004
 -17406985.30648 -13510513.56348  21253796.1844   21253805.5354   21253796.972
        53.0004         49.0004
  -6451921.90748  -4967890.14347  23023246.5154   23023251.8634   23023244.900
        48.0004         43.0004
   -764499.67148   -596049.19445  24642054.2094   24642069.7604   24642058.459
        53.0004         35.0004
 -19428660.96849 -15065940.02548  20874289.6334   20874297.3894   20874290.011
        54.0004         50.0004
  -4334890.70747  -3369712.94346  23258140.0284   23258146.1654   23258139.648
        42.0004         37.0004
 -10931189.11348  -8473134.33247  21945355.6674   21945364.4794   21945356.676
        50.0004         46.0004
 -13323288.60948 -10333479.48647  22083687.8954   22083695.0714   22083688.638
        52.0004         47.0004
 15  1  1  0 10 30.0000000  0  8G18G27G22G31G16G08G14G32
  -3502258.43946  -2605699.25446  24034367.6634   24034373.2544   24034366.731
        40.0004         36.0004
  -4081769.90247  -3131880.84446  23657903.8374   23657920.4254   23657903.578
        46.0004         41.0004
 -17330809.49948 -13451156.05648  21268292.4754   21268300.9764   21268292.794
        53.0004         49.0004
  -6411132.32148  -4936106.01447  23031008.6564   23031012.3024   23031009.204
        48.0004         44.0004
 -19483298.12149 -15108514.34748  20863892.2304   20863900.2464   20863892.567
        54.0004         50.0004
  -4322135.82547  -3359774.00446  23260566.8794   23260576.2614   23260565.810
        42.0004         37.0004
 -10951883.29148  -8489259.73947  21941418.4964   21941427.2784   21941418.272
        50.0004         46.0004
 -13380719.06048 -10378230.45747  22072758.7624   22072765.9324   22072759.196
        52.0004         47.0004
 15  1  1  0 11  0.0000000  0  8G18G27G22G31G16G08G14G32
  -3394744.38646  -2521921.66645  24054827.0144   24054831.6214   24054826.277
        40.0004         35.0004
  -4159228.25747  -3192237.89446  23643163.6434   23643180.4484   23643163.245
        46.0004         41.0004
 -17254305.53548 -13391542.83048  21282850.5394   21282860.2034   21282851.287
        53.0004         49.0004
  -6370499.22348  -4904443.81247  23038739.7074   23038744.3734   23038739.888
        48.0004         43.0004
 -19537394.51049 -15150667.29848  20853598.0284   20853605.8104   20853598.317
        55.0004         50.0004
  -4309336.13547  -3349800.15046  23263002.9224   23263011.2374   23263001.499
        42.0004         38.0004
 -10972341.09448  -8505200.95847  21937526.1294   21937533.8854   21937525.756
        50.0004         46.0004
 -13437747.23948 -10422667.96947  22061906.8004   22061913.8344   22061907.299
        52.0004         47.0004
 15  1  1  0 11 30.0000000  0  9G18G27G22G31G29G16G08G14G32
  -3287193.88846  -2438115.67745  24075292.1144   24075298.1144   24075293.131
        40.0004         35.0004
  -4236817.68547  -3252697.10146  23628399.6944   23628415.6794   23628398.524
        46.0004         41.0004
 -17177478.95548 -13331678.22848  21297470.5204   21297479.7584   21297470.898
        53.0004         49.0004
  -6330026.26848  -4872906.41347  23046442.9424   23046447.0374   23046442.612
        48.0004         44.0004
                                                                  24660652.751

 -19590950.91949 -15192399.48048  20843406.4594   20843413.4764   20843406.502
        55.0004         50.0004
  -4296496.32447  -3339795.08246  23265445.1394   23265454.4014   23265447.286
        42.0004         37.0004
 -10992562.78348  -8520958.19547  21933677.7774   21933686.2134   21933677.951
        51.0004         46.0004
 -13494374.21048 -10466792.84747  22051131.1304   22051138.0984   22051130.987
        52.0004         47.0004
 15  1  1  0 12  0.0000000  0  9G18G27G22G31G29G16G08G14G32
  -3179608.11046  -2354282.29945  24095764.0364   24095771.6974   24095766.156
        39.0004         34.0004
  -4314534.56547  -3313255.59347  23613609.9644   23613626.6184   23613610.471
        46.0004         42.0004
 -17100330.66048 -13271562.93448  21312151.7344   21312160.2154   21312152.043
        53.0004         49.0004
  -6289712.78548  -4841493.25747  23054112.5154   23054118.0614   23054111.988
        48.0004         44.0004
                                                                  24666982.263

 -19643964.36649 -15233708.57848  20833318.4904   20833325.8804   20833318.851
        55.0004         50.0004
  -4283616.65046  -3329758.95446  23267895.9854   23267904.0034   23267896.956
        41.0004         36.0004
 -11012544.54648  -8536528.47047  21929875.0424   21929882.9824   21929875.277
        50.0004         46.0004
 -13550596.73548 -10510602.58547  22040432.4284   22040439.8394   22040432.688
        52.0004         47.0004
 15  1  1  0 12 30.0000000  0  9G18G27G22G31G29G16G08G14G32
  -3071992.43046  -2270425.67345  24116242.1334   24116253.0874   24116242.081
        39.0004         34.0004
  -4392379.56047  -3373913.93847  23598795.8664   23598813.1124   23598795.882
        47.0004         42.0004
 -17022866.30048 -13211201.35648  21326892.2204   21326901.5544   21326892.840
        53.0004         49.0004
  -6249562.74948  -4810207.46547  23061753.8024   23061758.2614   23061752.480
        48.0004         43.0004
   -623189.79459   -485970.81456  24673381.3985   24673392.6685   24673382.152
        56.0004         37.0004
 -19696435.99549 -15274595.48248  20823333.7004   20823340.7664   20823333.830
        55.0004         50.0004
  -4270702.10246  -3319695.61146  23270353.0714   23270361.8124   23270355.626
        41.0004         36.0004
 -11032286.27548  -8551911.71547  21926118.9964   21926126.5394   21926118.770
        51.0004         46.0004
 -13606416.00648 -10554098.08647  22029810.2674   22029816.9154   22029810.730
        52.0004         47.0004
 15  1  1  0 13  0.0000000  0  9G18G27G22G31G29G16G08G14G32
                  -2186541.73245                  24136731.0724   24136728.126
                        33.0004
  -4470342.64247  -3434664.27147  23583960.4304   23583977.3664   23583959.971
        47.0004         43.0004
 -16945081.06248 -13150589.74048  21341695.0844   21341703.7464   21341695.975
        53.0004         49.0004
  -6209569.17948  -4779043.62247  23069364.4324   23069368.3374   23069364.812
        48.0004         43.0004
                                                                  24679847.698

 -19748355.89549 -15315052.46248  20813453.2394   20813460.5714   20813453.668
        55.0004         50.0004
  -4257746.79646  -3309600.50146  23272819.9954   23272827.7764   23272821.655
        41.0004         37.0004
 -11051778.45148  -8567100.49447  21922409.4374   21922418.3484   21922409.480
        51.0004         46.0004
 -13661822.59648 -10597272.02847  22019265.9554   22019274.0184   22019266.983
        52.0004         47.0004
 15  1  1  0 13 30.0000000  0  8G18G27G22G31G16G08G14G32
                  -2102638.66745                  24157228.8964   24157219.665
                        31.0004
  -4548430.64147  -3495511.93247  23569100.8844   23569117.6444   23569100.565
        47.0004         43.0004
 -16866985.97048 -13089736.68848  21356556.1484   21356565.2694   21356557.042
        53.0004         49.0004
  -6169741.64048  -4748009.14247  23076943.4924   23076948.2644   23076942.532
        48.0004         43.0004
 -19799731.82149 -15355085.57648  20803676.5204   20803684.1384   20803676.669
        55.0004         50.0004
  -4244761.34946  -3299481.92746  23275291.8964   23275299.0944   23275290.919
        41.0004         37.0004
 -11071027.16648  -8582099.56747  21918746.7844   21918755.4234   21918746.834
        51.0004         46.0004
 -13716823.91148 -10640130.16847  22008800.3104   22008807.1394   22008800.800
        52.0004         47.0004
 15  1  1  0 14  0.0000000  0  8G18G27G22G31G16G08G14G32
                                                                  24177709.276

  -4626656.40147  -3556466.98047  23554214.4894   23554231.9104   23554214.414
        47.0004         42.0004
 -16788598.53448 -13028655.84048  21371472.7534   21371482.2874   21371473.212
        53.0004         49.0004
  -6130096.08448  -4717116.48747  23084486.6034   23084492.7284   23084485.161
        48.0004         43.0004
 -19850577.27949 -15394705.33548  20794000.7764   20794008.4234   20794000.968
        55.0004         50.0004
  -4231762.85346  -3289353.19446  23277763.8894   23277773.0454   23277765.755
        41.0004         37.0004
 -11090045.02448  -8596918.76247  21915128.0484   21915136.1634   21915127.896
        51.0004         46.0004
 -13771433.28748 -10682682.89647  21998408.5984   21998415.1674   21998409.064
        52.0004         47.0004
 15  1  1  0 14 30.0000000  0  8G18G27G22G31G16G08G14G32
                                                                  24198208.244

  -4704979.33147  -3617497.74347  23539310.0794   23539327.4754   23539309.345
        47.0004         42.0004
 -16709882.79948 -12967319.17848  21386452.4144   21386461.8014   21386452.949
        53.0004         48.0004
  -6090594.87648  -4686336.29947  23092004.0134   23092008.7634   23092003.974
        48.0004         44.0004
 -19900851.77249 -15433880.20048  20784434.1504   20784441.1724   20784434.571
        55.0004         50.0004
  -4218714.70646  -3279185.69446  23280245.7614   23280253.2964   23280246.033
        41.0004         37.0004
 -11108790.87248  -8611525.99747  21911560.8694   21911569.8914   21911561.062
        51.0004         46.0004
 -13825610.74248 -10724899.05847  21988098.4394   21988106.2304   21988098.958
        52.0004         47.0004
 15  1  1  0 15  0.0000000  0  7G27G22G31G16G08G14G32
  -4783418.71447  -3678619.24347  23524382.9834   23524400.5284   23524384.039
        47.0004         42.0004
 -16630863.27948 -12905745.79948  21401489.1744   21401499.1954   21401489.930
        53.0004         48.0004
  -6051260.51448  -4655686.13847  23099489.5934   23099494.0794   23099489.396
        48.0004         44.0004
 -19950575.33149 -15472625.75448  20774971.5124   20774979.5934   20774971.627
        55.0004         50.0004
  -4205640.27646  -3268997.76646  23282734.6054   23282743.6504   23282735.448
        41.0004         37.0004
 -11127284.07548  -8625936.37047  21908041.9324   21908050.3174   21908041.869
        51.0004         46.0004
 -13879376.18048 -10766794.16947  21977867.0304   21977874.2254   21977867.582
        52.0004         47.0004
 15  1  1  0 15 30.0000000  0  7G27G22G31G16G08G14G32
  -4861971.20647  -3739828.86247  23509435.0644   23509452.5944   23509434.739
        47.0004         42.0004
 -16551541.54948 -12843936.94548  21416583.4044   21416593.3694   21416584.325
        53.0004         48.0004
  -6012092.75748  -4625165.79147  23106942.0654   23106947.5474   23106942.365
        48.0004         43.0004
 -19999745.17549 -15510939.85448  20765615.2584   20765622.6044   20765615.830
        55.0004         50.0004
  -4192540.25146  -3258789.83546  23285227.6144   23285236.6334   23285229.001
        41.0004         37.0004
 -11145521.06148  -8640147.10447  21904571.1294   21904579.0594   21904571.704
        51.0004         46.0004
 -13932726.86848 -10808366.09747  21967715.1234   21967722.0694   21967715.430
        52.0004         47.0004
 15  1  1  0 16  0.0000000  0  8G27G22G31G29G16G08G14G32
  -4940633.72047  -3801124.22647  23494465.9394   23494483.3704   23494466.298
        47.0004         43.0004
 -16471919.26348 -12781893.87048  21431735.8374   21431745.1904   21431737.231
        53.0004         48.0004
  -5973091.99948  -4594775.56547  23114364.3594   23114368.3164   23114363.409
        48.0004         43.0004
                                                                  24720055.130

 -20048359.22149 -15548820.86448  20756364.1964   20756371.4824   20756364.294
        55.0004         50.0004
  -4179415.86546  -3248563.00346  23287726.7974   23287734.0214   23287726.727
        41.0004         37.0004
 -11163498.86348  -8654155.88047  21901149.5744   21901158.4564   21901150.099
        51.0004         46.0004
 -13985660.60448 -10849613.13147  21957642.0914   21957649.0064   21957642.259
        52.0004         47.0004
 15  1  1  0 16 30.0000000  0  7G27G22G31G16G08G14G32
  -5019408.50647  -3862507.07947  23479475.7614   23479493.0514   23479476.502
        47.0004         43.0004
 -16392003.69848 -12719622.28248  21446942.6504   21446953.0174   21446943.805
        53.0004         48.0004
  -5934263.34448  -4564519.46247  23121752.2204   23121757.7824   23121752.807
        48.0004         43.0004
 -20096420.45649 -15586271.10848  20747218.3924   20747225.7914   20747218.834
        55.0004         50.0004
  -4166273.52546  -3238322.11846  23290226.0414   23290231.5114   23290226.982
        41.0004         37.0004
 -11181219.35348  -8667964.15047  21897779.0464   21897786.6974   21897778.167
        51.0004         46.0004
 -14038180.28648 -10890537.53347  21947647.8284   21947655.0524   21947648.446
        52.0004         47.0004
 15  1  1  0 17  0.0000000  0  7G27G22G31G16G08G14G32
  -5098287.77648  -3923971.35947  23464466.4704   23464482.3394   23464466.049
        48.0004         43.0004
 -16311791.62648 -12657119.64548  21462207.1764   21462217.3564   21462208.303
        53.0004         48.0004
  -5895601.71948  -4534393.52647  23129110.6444   23129115.9584   23129110.566
        48.0004         44.0004
 -20143921.62349 -15623284.93848  20738178.7864   20738186.5114   20738178.870
        55.0004         50.0004
  -4153109.29546  -3228064.17346  23292731.5404   23292738.7044   23292733.590
        41.0004         37.0004
 -11198674.20548  -8681565.44647  21894456.9894   21894465.5624   21894457.564
        51.0004         46.0004
 -14090278.76548 -10931133.72247  21937733.5814   21937741.0174   21937733.800
        52.0004         47.0004
 15  1  1  0 17 30.0000000  0  8G03G27G22G31G16G08G14G32
   -671408.87548   -465955.32946  24750485.8684   24750495.9864   24750484.441
        48.0004         37.0004
  -5177272.39548  -3985517.72347  23449436.2734   23449451.6144   23449435.660
        48.0004         43.0004
 -16231289.06548 -12594390.65348  21477526.4264   21477536.3924   21477527.216
        53.0004         48.0004
  -5857111.06948  -4504400.79647  23136435.2264   23136439.2074   23136433.784
        48.0004         43.0004
 -20190863.99849 -15659863.33948  20729246.0934   20729253.2384   20729246.514
        55.0004         50.0004
  -4139928.39147  -3217793.29446  23295239.7664   23295244.4404   23295241.323
        42.0004         37.0004
 -11215864.38748  -8694960.49347  21891185.9004   21891194.1764   21891185.484
        51.0004         46.0004
 -14141957.73348 -10971403.01447  21927899.1804   21927907.0724   21927900.037
        52.0004         47.0004
 15  1  1  0 18  0.0000000  0  8G03G27G22G31G16G08G14G32
   -763852.15947   -537989.00246  24732896.1074   24732902.4284   24732895.818
        44.0004         38.0004
  -5256359.54647  -4047144.01047  23434385.9684   23434401.8454   23434385.293
        47.0004         43.0004
 -16150498.55448 -12531437.29048  21492900.5744   21492911.1694   21492901.384
        52.0004         48.0004
  -5818791.79848  -4474541.61447  23143727.2814   23143731.2364   23143726.468
        48.0004         43.0004
 -20237245.98349 -15696005.06848  20720419.8054   20720427.2034   20720420.294
        55.0004         50.0004
  -4126732.08947  -3207510.38046  23297749.5274   23297757.7664   23297750.275
        42.0004         37.0004
 -11232787.06648  -8708147.09047  21887965.9274   21887973.8044   21887966.090
        51.0004         46.0004
 -14193215.11848 -11011343.80347  21918145.7054   21918152.5044   21918146.092
        52.0004         47.0004
 15  1  1  0 18 30.0000000  0  9G03G27G22G31G29G16G08G14G32
   -856065.90747   -609843.82446  24715348.1344   24715354.8524   24715347.371
        43.0004         38.0004
  -5335548.63248  -4108849.71547  23419317.4944   23419332.3374   23419317.287
        48.0004         43.0004
 -16069423.98748 -12468262.57948  21508329.2714   21508338.9404   21508329.539
        52.0004         48.0004
  -5780646.40148  -4444817.92747  23150984.4594   23150989.8994   23150984.895
        48.0004         43.0004
                                                                  24755416.781

 -20283068.30549 -15731710.71248  20711700.0074   20711707.3284   20711700.456
        55.0004         50.0004
  -4113523.90447  -3197218.22846  23300263.3314   23300269.0334   23300263.209
        42.0004         37.0004
 -11249441.56148  -8721124.72047  21884795.2714   21884805.2534   21884796.350
        51.0004         46.0004
 -14244051.35048 -11050956.41847  21908472.0234   21908478.7314   21908472.795
        52.0004         47.0004
 15  1  1  0 19  0.0000000  0  8G03G27G22G31G16G08G14G32
   -948045.57247   -681516.22246  24697844.1494   24697852.0074   24697844.475
        43.0004         38.0004
  -5414835.16047  -4170631.34047  23404228.4594   23404244.0084   23404228.181
        47.0004         43.0004
 -15988065.76948 -12404866.83948  21523810.8524   21523820.9654   21523811.724
        52.0004         48.0004
  -5742673.18848  -4415228.40047  23158211.6214   23158215.9214   23158212.265
        48.0004         44.0004
 -20328327.08149 -15766977.21948  20703087.6504   20703094.9184   20703088.111
        55.0004         50.0004
  -4100303.26347  -3186916.31546  23302779.3774   23302786.2284   23302780.141
        43.0004         38.0004
 -11265822.95648  -8733889.53947  21881679.2664   21881688.5104   21881679.573
        51.0004         46.0004
 -14294462.62948 -11090237.90947  21898878.8934   21898885.7994   21898878.832
        52.0004         47.0004
 15  1  1  0 19 30.0000000  0  8G03G27G22G31G16G08G14G32
  -1039789.10647   -753004.62446  24680386.3314   24680392.8424   24680385.380
        43.0004         38.0004
  -5494217.24247  -4232487.39047  23389122.6534   23389139.3734   23389121.789
        47.0004         43.0004
 -15906426.91648 -12341252.43948  21539346.9464   21539357.6554   21539347.934
        52.0004         48.0004
  -5704873.48448  -4385774.07147  23165405.2584   23165410.4544   23165403.931
        48.0004         43.0004
 -20373021.17449 -15801803.72348  20694582.9964   20694589.8944   20694583.061
        55.0004         50.0004
  -4087072.66647  -3176606.69046  23305297.2954   23305304.7494   23305297.870
        43.0004         39.0004
 -11281929.62948  -8746440.29047  21878614.0534   21878623.1014   21878614.200
        51.0004         46.0004
 -14344448.12548 -11129187.62048  21889366.5574   21889373.9744   21889367.174
        52.0004         48.0004
 15  1  1  0 20  0.0000000  0  8G03G27G22G31G16G08G14G32
  -1131294.82547   -824307.73946  24662973.6874   24662979.7914   24662973.616
        43.0004         38.0004
  -5573693.25548  -4294416.63047  23373998.3044   23374014.7774   23373998.134
        48.0004         43.0004
 -15824510.89148 -12277422.04748  21554934.6964   21554945.2524   21554935.451
        52.0004         48.0004
  -5667248.61248  -4356455.98447  23172564.7554   23172567.7754   23172564.283
        48.0004         43.0004
 -20417149.89149 -15836189.66348  20686185.1944   20686192.3594   20686185.349
        55.0004         50.0004
  -4073834.64647  -3166291.25646  23307816.8914   23307822.5474   23307816.631
        43.0004         39.0004
 -11297759.67348  -8758775.49847  21875602.4084   21875610.4144   21875602.166
        51.0004         46.0004
 -14394006.90048 -11167804.82848  21879935.9814   21879943.4304   21879936.580
        52.0004         48.0004
 15  1  1  0 20 30.0000000  0  9G03G27G22G31G29G16G08G14G32
  -1222563.65547   -895426.29546  24645605.9424   24645612.9264   24645605.246
        43.0004         38.0004
  -5653264.11448  -4356419.78347  23358857.5614   23358873.7614   23358856.877
        48.0004         44.0004
 -15742323.66548 -12213380.34547  21570574.7664   21570585.2444   21570575.381
        52.0004         47.0004
  -5629802.47048  -4327277.18047  23179690.4374   23179693.7184   23179690.878
        48.0004         43.0004
                                                                  24784926.005

 -20460715.44849 -15870136.78248  20677895.4694   20677901.9504   20677895.431
        55.0004         50.0004
  -4060594.13847  -3155973.87746  23310334.7344   23310341.2694   23310334.892
        43.0004         38.0004
 -11313314.05148  -8770895.89247  21872642.2214   21872650.4074   21872642.209
        51.0004         46.0004
 -14443140.99948 -11206091.12748  21870586.4104   21870593.2004   21870586.505
        53.0004         48.0004
 15  1  1  0 21  0.0000000  0  8G03G27G22G31G16G08G14G32
  -1313586.92147   -966353.52046  24628284.4214   24628291.6164   24628282.536
        43.0004         39.0004
  -5732921.26848  -4418490.18747  23343698.5714   23343714.3724   23343698.089
        48.0004         43.0004
 -15659861.74748 -12149124.58148  21586266.8744   21586277.6874   21586267.755
        52.0004         48.0004
  -5592529.77948  -4298233.51347  23186782.3624   23186787.0744   23186782.521
        48.0004         43.0004
 -20503710.25449 -15903639.15448  20669712.9854   20669720.2194   20669713.041
        55.0004         50.0004
  -4047346.88247  -3145651.22646  23312856.3174   23312863.9014   23312856.081
        43.0004         38.0004
 -11328584.33148  -8782794.91747  21869736.2304   21869745.1724   21869737.430
        51.0004         47.0004
 -14491842.75548 -11244040.54148  21861318.6684   21861326.4444   21861318.974
        53.0004         48.0004
 15  1  1  0 21 30.0000000  0  8G03G27G22G31G16G08G14G32
  -1404364.14047  -1037089.02946  24611010.1604   24611017.2884   24611008.820
        43.0004         39.0004
  -5812664.27048  -4480627.51047  23328524.4994   23328539.8654   23328524.193
        48.0004         43.0004
 -15577129.74948 -12084658.36747  21602010.2954   21602020.7154   21602011.264
        52.0004         47.0004
  -5555433.05548  -4269326.95647  23193842.2494   23193847.6604   23193842.101
        48.0004         43.0004
 -20546134.66449 -15936697.06448  20661639.7754   20661647.3004   20661640.022
        55.0004         50.0004
  -4034096.53147  -3135326.15646  23315378.7914   23315385.9964   23315378.894
        43.0004         39.0004
 -11343569.95048  -8794472.12947  21866884.6284   21866892.6594   21866885.065
        51.0004         46.0004
 -14540112.69248 -11281653.47848  21852133.3414   21852140.2204   21852133.683
        53.0004         48.0004
 15  1  1  0 22  0.0000000  0  8G03G27G22G31G16G08G14G32
  -1494899.72147  -1107636.32946  24593781.2814   24593788.8474   24593780.351
        44.0004         39.0004
  -5892497.45048  -4542835.08347  23313332.6214   23313348.5024   23313332.765
        48.0004         43.0004
 -15494136.84348 -12019988.84147  21617803.8074   21617814.4864   21617804.620
        52.0004         47.0004
  -5518519.57348  -4240563.19647  23200866.2494   23200870.7274   23200865.679
        48.0004         43.0004
 -20587994.60449 -15969315.13148  20653674.1614   20653681.3774   20653673.969
        55.0004         50.0004
  -4020851.71947  -3125005.40246  23317898.1914   23317906.2254   23317899.973
        44.0004         39.0004
 -11358275.10348  -8805930.80147  21864086.7294   21864095.0724   21864086.604
        51.0004         46.0004
 -14587956.33148 -11318934.23448  21843028.7054   21843035.8844   21843029.299
        53.0004         48.0004
 15  1  1  0 22 30.0000000  0  8G03G27G22G31G16G08G14G32
  -1585183.07847  -1177987.05946  24576601.1404   24576609.5714   24576599.644
        43.0004         39.0004
  -5972410.32948  -4605104.75347  23298125.5954   23298140.5814   23298124.836
        48.0004         44.0004
 -15410877.94248 -11955112.04847  21633647.9864   21633658.4024   21633648.603
        52.0004         47.0004
  -5481781.84348  -4211936.38047  23207857.2774   23207861.9014   23207857.471
        48.0004         44.0004
 -20629280.54449 -16001485.92848  20645817.7644   20645824.6534   20645818.008
        55.0004         50.0004
  -4007606.23447  -3114684.15346  23320418.8234   23320426.5254   23320419.172
        44.0004         39.0004
 -11372689.54348  -8817162.94547  21861343.9204   21861352.4084   21861343.970
        51.0004         46.0004
 -14635364.05948 -11355875.31048  21834007.4124   21834014.4394   21834008.058
        53.0004         48.0004
 15  1  1  0 23  0.0000000  0  8G03G27G22G31G16G08G14G32
  -1675213.18347  -1248140.43846  24559468.9424   24559476.8024   24559468.374
        43.0004         39.0004
  -6052401.80048  -4667435.66547  23282903.5764   23282919.5144   23282903.075
        48.0004         44.0004
 -15327356.97848 -11890031.05948  21649541.5574   21649552.6134   21649541.931
        52.0004         48.0004
  -5445221.85548  -4183448.06947  23214814.3164   23214820.2614   23214814.435
        48.0004         43.0004
 -20669992.51949 -16033209.48048  20638070.6964   20638077.6684   20638070.949
        55.0004         50.0004
  -3994362.92947  -3104364.63346  23322938.7574   23322946.2404   23322938.892
        43.0004         38.0004
 -11386812.45348  -8828167.94147  21858656.2054   21858665.5264   21858656.291
        51.0004         46.0004
 -14682335.84748 -11392476.69648  21825069.0174   21825075.7924   21825069.209
        53.0004         48.0004
 15  1  1  0 23 30.0000000  0  8G03G27G22G31G16G08G14G32
  -1764993.04147  -1318098.83146  24542383.6344   24542391.8454   24542383.174
        44.0004         39.0004
  -6132474.85548  -4729830.17147  23267665.7974   23267682.1204   23267665.460
        48.0004         44.0004
 -15243581.84148 -11824752.01447  21665483.3454   21665494.4044   21665484.349
        52.0004         47.0004
  -5408845.83448  -4155103.11147  23221737.3784   23221740.1504   23221737.006
        48.0004         43.0004
 -20710134.86949 -16064489.16848  20630431.4854   20630438.7164   20630431.644
        55.0004         50.0004
  -3981129.37047  -3094052.68146  23325456.7184   23325463.9954   23325457.466
        43.0004         39.0004
 -11400646.55748  -8838947.89147  21856023.8754   21856032.9344   21856023.584
        51.0004         46.0004
 -14728875.95348 -11428741.71148  21816212.7034   21816220.0084   21816212.980
        53.0004         48.0004
 15  1  1  0 24  0.0000000  0  8G03G27G22G31G16G08G14G32
  -1854516.86147  -1387857.70246  24525348.9704   24525355.4814   24525348.656
        44.0004         39.0004
  -6212623.67948  -4792283.74247  23252414.1874   23252428.8194   23252414.141
        48.0004         43.0004
 -15159551.46848 -11759274.09247  21681474.9334   21681485.1524   21681475.300
        52.0004         47.0004
  -5372650.30748  -4126898.79947  23228624.0464   23228629.3564   23228623.957
        48.0004         43.0004
 -20749703.14849 -16095321.53648  20622901.8624   20622908.9034   20622901.847
        55.0004         50.0004
  -3967903.74347  -3083746.91746  23327973.2604   23327981.9594   23327973.200
        44.0004         39.0004
 -11414185.68748  -8849497.99847  21853447.6554   21853457.0134   21853448.117
        51.0004         47.0004
 -14774979.61648 -11464666.64148  21807439.7104   21807446.1904   21807439.670
        53.0004         48.0004
 15  1  1  0 24 30.0000000  0  8G03G27G22G31G16G08G14G32
  -1943782.25747  -1457415.21346  24508361.0794   24508368.8964   24508362.032
        43.0004         38.0004
  -6292845.82648  -4854794.44147  23237148.0944   23237163.1574   23237146.857
        48.0004         43.0004
 -15075269.19048 -11693599.89947  21697512.8584   21697523.2584   21697513.183
        52.0004         47.0004
  -5336636.35448  -4098835.98547  23235477.2654   23235481.6504   23235476.478
        48.0004         43.0004
 -20788696.20249 -16125705.66548  20615481.8624   20615488.8124   20615482.070
        55.0004         50.0004
  -3954687.79847  -3073448.70446  23330489.4544   23330494.5584   23330488.025
        44.0004         40.0004
 -11427427.97648  -8859816.81747  21850927.1734   21850937.5694   21850927.242
        51.0004         46.0004
 -14820645.52648 -11500250.44748  21798749.3784   21798756.4654   21798749.863
        53.0004         48.0004
 15  1  1  0 25  0.0000000  0  8G03G27G22G31G16G08G14G32
  -2032789.20947  -1526771.33746  24491424.1084   24491432.2054   24491423.672
        43.0004         38.0004
  -6373141.16448  -4917362.17647  23221868.9714   23221884.3734   23221868.845
        48.0004         43.0004
 -14990739.69348 -11627733.06247  21713598.9094   21713609.0644   21713599.167
        52.0004         47.0004
  -5300806.77548  -4070916.82547  23242295.7324   23242300.6994   23242295.336
        48.0004         44.0004
 -20827115.28149 -16155642.54148  20608170.9804   20608177.8904   20608171.025
        55.0004         50.0004
  -3941485.65947  -3063161.23646  23333000.9244   23333008.3604   23332999.830
        44.0004         40.0004
 -11440373.65848  -8869904.52047  21848464.4814   21848473.1384   21848464.822
        51.0004         46.0004
 -14865874.81548 -11535494.02948  21790142.8054   21790149.9804   21790142.895
        53.0004         48.0004
 15  1  1  0 25 30.0000000  0  8G03G27G22G31G16G08G14G32
  -2121531.95247  -1595921.56446  24474536.9754   24474545.1274   24474534.568
        43.0004         38.0004
  -6453503.76348  -4979982.31047  23206576.2714   23206591.0604   23206575.912
        48.0004         43.0004
 -14905962.20148 -11561672.98147  21729731.2184   21729742.1344   21729732.585
        52.0004         47.0004
  -5265158.88548  -4043139.23647  23249080.1364   23249084.3754   23249079.713
        48.0004         44.0004
 -20864955.75749 -16185128.55548  20600970.1904   20600976.8304   20600970.397
        55.0004         50.0004
  -3928295.43147  -3052883.05746  23335510.7824   23335517.9724   23335510.768
        44.0004         40.0004
 -11453016.68648  -8879756.37647  21846058.1044   21846067.8664   21846058.659
        51.0004         46.0004
 -14910662.74448 -11570393.68448  21781619.7474   21781626.8374   21781620.578
        53.0004         49.0004
 15  1  1  0 26  0.0000000  0  8G03G27G22G31G16G08G14G32
  -2210010.17747  -1664865.61846  24457699.7844   24457707.5994   24457701.464
        43.0004         38.0004
  -6533933.25448  -5042654.57647  23191270.1084   23191285.6924   23191270.493
        48.0004         43.0004
 -14820941.62048 -11495423.46247  21745909.9504   21745921.5774   21745910.797
        52.0004         47.0004
  -5229695.29248  -4015505.25947  23255828.7854   23255832.4164   23255827.367
        48.0004         43.0004
 -20902218.73449 -16214164.58048  20593878.7174   20593885.7344   20593878.950
        55.0004         50.0004
  -3915121.23947  -3042617.41446  23338016.9594   23338024.0574   23338017.874
        45.0004         40.0004
 -11465357.13548  -8889372.47647  21843710.9094   21843719.0454   21843711.273
        51.0004         46.0004
 -14955010.20948 -11604950.12648  21773180.6664   21773187.9224   21773181.109
        53.0004         49.0004
 15  1  1  0 26 30.0000000  0  8G03G27G22G31G16G08G14G32
  -2298222.88647  -1733602.82746  24440914.7174   24440921.7184   24440912.590
        43.0004         39.0004
  -6614428.47848  -5105378.07847  23175952.5654   23175967.7024   23175952.245
        48.0004         43.0004
 -14735681.81048 -11428987.52447  21762135.5364   21762145.8324   21762135.913
        52.0004         47.0004
  -5194417.47548  -3988016.03247  23262539.6564   23262545.1904   23262540.589
        48.0004         43.0004
 -20938904.73549 -16242751.00748  20586897.8274   20586904.8244   20586898.126
        55.0004         50.0004
  -3901966.22347  -3032366.68746  23340521.1644   23340528.0654   23340521.108
        45.0004         41.0004
 -11477393.77748  -8898751.85647  21841419.9534   21841428.6924   21841420.401
        51.0004         46.0004
 -14998917.36048 -11639163.45548  21764825.0824   21764832.6984   21764826.099
        53.0004         48.0004
 15  1  1  0 27  0.0000000  0  8G03G27G22G31G16G08G14G32
  -2386164.27147  -1802128.58146  24424177.0594   24424186.2904   24424179.415
        43.0004         38.0004
  -6694983.43647  -5168148.14447  23160623.5764   23160639.4014   23160622.673
        47.0004         43.0004
 -14650181.92848 -11362364.49847  21778405.0694   21778416.5034   21778405.220
        52.0004         47.0004
  -5159322.68748  -3960669.43347  23269219.3484   23269224.3544   23269217.452
        48.0004         43.0004
 -20975009.06049 -16270884.18748  20580027.3704   20580034.4954   20580027.740
        55.0004         50.0004
  -3888828.68847  -3022129.58747  23343020.9024   23343027.9694   23343020.001
        46.0004         42.0004
 -11489120.92048  -8907890.05747  21839187.8014   21839197.1474   21839187.631
        51.0004         46.0004
 -15042379.59148 -11673030.10248  21756554.7604   21756562.2354   21756554.997
        53.0004         48.0004
 15  1  1  0 27 30.0000000  0  8G03G27G22G31G16G08G14G32
  -2473837.80347  -1870445.61746  24407496.2214   24407503.7254   24407496.016
        43.0004         38.0004
  -6775601.38348  -5230967.30447  23145282.8614   23145297.8074   23145282.844
        48.0004         43.0004
 -14564450.43048 -11295560.98547  21794720.1144   21794731.3134   21794720.871
        52.0004         47.0004
  -5124417.16748  -3933470.30947  23275862.5074   23275865.9954   23275861.578
        48.0004         44.0004
 -21010536.52549 -16298567.85948  20573266.8724   20573273.6234   20573267.175
        55.0004         50.0004
  -3875715.83247  -3011911.71647  23345516.4234   23345522.5224   23345516.338
        46.0004         42.0004
 -11500541.78348  -8916789.61147  21837015.4964   21837024.3024   21837015.626
        51.0004         46.0004
 -15085401.38948 -11706553.56048  21748368.3764   21748374.7714   21748368.971
        53.0004         48.0004
 15  1  1  0 28  0.0000000  0  8G03G27G22G31G16G08G14G32
  -2561236.50147  -1938548.56546  24390864.2844   24390871.8014   24390864.618
        43.0004         39.0004
  -6856275.17648  -5293829.98747  23129930.8374   23129946.0064   23129931.130
        48.0004         43.0004
 -14478485.71848 -11228575.75847  21811078.6534   21811090.1724   21811079.903
        52.0004         47.0004
  -5089696.68148  -3906415.40147  23282469.3644   23282473.7914   23282468.372
        48.0004         43.0004
 -21045481.57349 -16325797.69648  20566616.5874   20566623.8364   20566616.697
        55.0004         50.0004
  -3862624.61147  -3001710.73647  23348006.5054   23348013.9214   23348007.654
        46.0004         42.0004
 -11511649.77048  -8925445.37847  21834900.9264   21834910.5514   21834901.196
        51.0004         46.0004
 -15127977.06648 -11739729.38348  21740265.8364   21740272.8804   21740266.706
        53.0004         48.0004
 15  1  1  0 28 30.0000000  0  8G03G27G22G31G16G08G14G32
  -2648359.77147  -2006436.85846  24374286.1074   24374293.3774   24374284.579
        44.0004         39.0004
  -6937004.01448  -5356735.55847  23114569.1304   23114584.1974   23114568.375
        48.0004         43.0004
 -14392292.03148 -11161412.09647  21827480.2834   21827491.9794   21827481.488
        52.0004         47.0004
  -5055163.67848  -3879506.54247  23289039.5454   23289044.8534   23289039.927
        48.0004         43.0004
 -21079844.88849 -16352574.24148  20560077.9534   20560084.5724   20560078.462
        55.0004         50.0004
  -3849558.84247  -2991529.60746  23350494.0784   23350498.2254   23350493.109
        46.0004         41.0004
 -11522444.43148  -8933856.98947  21832847.1864   21832856.4984   21832847.897
        51.0004         46.0004
 -15170107.16248 -11772558.01248  21732249.1004   21732256.0494   21732249.410
        53.0004         49.0004
